lat,lon,name
14.5872154,121.0644096,Elbow Room
14.549836,121.0475062,Early Night
12.9374822,100.8837876,Sukanya Bar Beer
13.7274447,100.5334988,Molly Malone's
37.5071814,127.0324786,런닝레빗가라오케
37.353458,126.721853,노블바 시화병원점
14.101831,120.9521167,Luxe Downunder Bar
14.1019608,120.9522863,Kon-Tiki Bar
12.9389748,100.8905018,-5° Supperclub
35.7008233,139.7410896,Drop
15.8765879,108.3282461,Cham Island Diving Center
34.7180506,135.4268066,スナック気まぐれ
14.5481616,121.0252846,Blue Angel
14.548108,121.0253359,Upstage
34.7226924,135.427604,
34.7273264,135.414178,
11.5747471,104.9268372,Rose Bar
11.5697377,104.9300277,Riverside Bistro
11.5713558,104.9294811,Garden Bar
14.5629053,121.028658,Rogues
14.5629467,121.0287989,Hollywood
14.5630121,121.0289381,Bourbon Street
14.5634448,121.0301894,Crazy Horse
14.5634546,121.0296517,Bottoms Bar
14.5634897,121.0297726,Mirrors bar
14.5634002,121.0300089,Cuervo Tequileria
14.5633338,121.0299573,Shampoo
14.5637323,121.0308199,Ringside
14.563686,121.0310478,Fridays
35.899617,139.3372187,
35.899549,139.3372583,
35.8994867,139.337315,
35.8993564,139.3372867,
35.8992601,139.3371904,
36.6593818,117.02295,English Corner
36.6607387,117.0319644,Soho
35.6861067,127.9103825,제이&비 (J&B)
13.720795,100.5280414,Hu'u Bar
36.6586038,117.0068322,Box Bar
33.5794629,130.4204487,ビリヤード＆ダーツ・バー
33.5889079,130.4240406,酒処あかり
33.588915,130.4238003,
1.3014202,103.8391309,Alley Bar
1.2931895,103.8534246,New Asia Bar (71st Floor)
1.3001364,103.8501121,
1.2433821,103.8280275,Tanjong Beach Club
14.6294948,103.4082219,Harleys
1.192349,104.4262177,Pasir Panjang Beach Bar
1.3001777,103.8407044,KPO
14.5748086,120.9814275,L.A. Cafe
14.5774868,120.9817159,G-Point
17.9763138,102.6187035,Relax
17.9544164,102.6251254,Juke Box
14.6344597,121.0355737,Centerstage
12.9298602,100.8834849,Luck Bar 1
12.927361,100.8869936,Boxing Roo
15.205582,145.7196071,Wild Bill's Bar & Grill
7.8202892,98.343448,
7.8212989,98.3424716,
7.8218278,98.3416736,coconutbar
27.6891618,86.729851,The Irish Pub
13.3550228,103.8549688,Banana Leaf
13.3544241,103.8544849,Linga Bar
13.355229,103.8546619,Miss Wong
7.8218825,98.3447296,tamarinbar
7.8202669,98.3441503,beer bar
11.3267565,124.1137295,Blue Coral Bar
39.9347744,116.4482063,Kokomo
35.6679434,139.6820721,真木
14.5379387,120.9951483,EDSA International Entertainment Complex
8.0322996,98.8251521,
35.6869979,139.7800258,Kiha
39.193678,140.1912701,スナックロータス
8.0195125,98.8345967,Pyramid Bar and Restaurant
8.0122533,98.842868,Joy Beach Bar
8.0123802,98.8430327,Bamboo Bar
11.7081784,122.3628108,Mezzanine
7.8967668,98.3089061,Mangmoon-Bar
7.9226961,98.2776208,Freedom Bar
17.760335,104.2909014,
14.6124743,121.0377712,Queba Bar Grill
17.9856054,104.0252882,Rung Phet Garden
14.6353432,121.0937017,Riverfront Bar and Grill
14.622018,121.1021183,The Roof Deck
14.6235064,121.1023351,Marikina River Gold Grill and Restobar
13.7392395,100.5556686,Lolita's
14.6333709,121.0940249,Junior KTV
14.6334854,121.094013,Emer's
14.6337209,121.09397,Enzimone
14.633885,121.09395,Pondahan ni Pugo
14.6340108,121.093934,Papa Jecks's
14.6341313,121.093919,Okavango
14.6342819,121.093901,
14.6342321,121.093907,BoraFire
8.0603867,98.2778525,Seaview Bar
8.0586586,98.2782005,Mr. Jakob
8.0562005,98.2783526,Madagascar
37.2594111,127.0313099,Le Parisien
13.7178353,100.5531811,
13.7181271,100.5531489,Indy tree bar
31.8323893,119.970653,Jim's Bar
10.6846718,122.9559747,Portico
10.6684174,122.9505053,Macho
21.8510534,106.7626327,Gold Club
9.623919,123.810471,
9.626679,123.860779,
9.6241632,123.9036432,
9.7409,123.914284,
14.6232599,121.1129102,Jassy Bar & Restaurant
14.624057,121.124899,Honey Restobar
10.6680269,122.9443377,MO2 Downtown
35.663353,139.708333,Tokyo Salon
14.5810007,121.1790996,Café Pranjetto Bar & Restaurant
35.692444,139.76632,Blondie
8.910684,98.5233572,Chill Out Bar
16.42476,102.822325,บ้านตะวันแดง
16.429212,102.8290394,Blue's Bar
37.3490215,139.3204569,スナックAZ(snuck AZ)
21.0350674,105.8530021,Half Man Half Noodle
21.0358287,105.8522274,Dragonfly
21.0350376,105.8541586,Roots Reggae bar
21.0383923,105.8551456,Phuc Tan Bar
21.0301308,105.8609285,Solace
21.0356982,105.853259,Hair of the Dog
14.5637894,121.0307824,Mixed Nuts/Birdies Cage
14.5847924,121.0640988,Mucho's KTV Bar
14.5866035,121.064389,Flare
14.5845675,121.0674366,Bugsy's Bar & Bistro
14.5852499,121.0643631,Chicago
10.3357815,123.9507062,BR Town Square
31.0348456,121.192081,Rose Bar
13.7412402,100.556218,Cheap Charlie's
11.5555521,104.9254922,Liquid
13.7415321,100.5530394,Big Dog's
13.7601131,100.5027895,The Family
31.2372637,121.4849677,Captain Hostel
13.3544708,103.8557501,Laundry
13.3542324,103.8534447,X-Bar
15.027713,120.6733015,
34.997289,135.7599289,横浜天下鳥
35.7878301,139.9276713,島人
35.784311,139.8981397,Club Zero
39.97185,116.4708065,Park Side
35.7833486,139.9007801,カウンターバーTifferny
35.7833,139.8985129,Club the Eden
35.7830423,139.8984201,Jazzの店コルコバード
50.2288001,136.8993663,Бархат
35.648469,139.745216,Yabusame
35.6481816,139.7462159,日比谷BAR
35.620234,139.726676,日本海海の華 (Uminohana)
35.7857166,139.9028643,バロック
35.7845319,139.9015299,歌うんだ村
35.7823107,139.9012013,ちょっと
31.5894628,130.5535152,クラブドーム (Club Doom)
31.5889615,130.5532538,サンドリオン (Cendrillon)
10.9516276,108.2109742,Mellow Bar
10.9475084,108.201579,Your Bar (b)
13.8395004,100.5742195,The Play
11.5245356,122.0840194,Vienna Bistro & Bar
16.6089259,120.2864,Patio Santorini
16.6087716,120.2859339,Pool Bar
14.6868599,120.5397385,Razz
35.7842315,139.8987212,3年A組
35.7841631,139.8980592,ローズマリー
35.7856797,139.9005601,舞姫
35.7864085,139.9009535,Petit Coquin
14.0706224,121.3294947,Maghirang Bar
14.5496577,121.0485068,Keg
34.7195108,135.4343767,
13.8922149,100.5605209,เอเบียร์โฮมบาร์แอนด์แกลเลอรี่
43.1214992,131.9532474,BeerLoga
35.5759208,139.6482147,けやき (Keyaki)
1.2472686,103.83988,eM By The Marina
35.5120022,139.4234608,はるみ
14.6332806,121.0946833,Bonchalet
21.0323292,105.8520426,Sago
10.5405201,106.4079012,Zorok bia quán nhậu
10.5316201,106.412727,Quán Ăn Quán Nhậu Miệt Vườn
10.5310831,106.4280836,Quán Nhậu Lao Động
35.884284,139.921518,魚金本店
22.334916,103.842065,Ngoc Vinh
14.6344681,121.0376502,Off the Grill
14.6342553,121.0385614,Puti Bar
14.6339647,121.0387277,Quattro
14.6350233,121.0356747,Padi's Point
35.7878394,139.9327947,アベイユ
1.0520893,104.7071004,Yogi's Bar
35.5553869,139.4271926,小窓
14.7083576,121.0633478,M2 Billiards
8.0286048,98.8250708,Last fisherman bar
22.287607,114.1575991,The Beer Bay
13.5223004,120.9724899,Point Bar
8.0147336,98.2918024,Reggae Bar
10.0987223,99.8282239,Lotus Bar
10.0977606,99.8288842,Sunflower
10.093474,99.8276053,Fishbowl
18.7754918,98.9767529,BN Club
18.7754726,98.9768886,Time Out
18.7754618,98.9769654,Y-Zone Club
18.7878049,98.9943218,Inter Bar
39.9087702,116.2945141,Greenleaf Internet bar
18.7890221,99.0993161,555
18.7898239,99.0039815,Riverside Bar & Restaurant
6.4858273,99.3051255,Reggae Bar
6.4874207,99.300093,Peace and Love Bar
6.4877249,99.3064379,Time to Chill
18.5864113,99.0514186,Buzz Club
18.5848035,99.0535243,
18.5849553,99.0536941,
18.5850135,99.0535466,
14.2219332,120.9735361,Vernini's Resto Bar
18.5876562,99.0478607,
18.5878606,99.047335,Bang-aov
18.5880415,99.0467409,
18.5880101,99.046798,เพีอน เพ
12.9342618,100.8873934,Lock and Load Bar
12.9297179,100.8853164,Climax Club
12.9345909,100.8863728,Puy Bar
12.9345828,100.8861837,Natalies Bar
12.9346242,100.8863097,Jane's Bar
10.6029938,103.5272932,Khin's Shack Bar
10.6087119,103.5260169,Golden Lion Plaza
14.3000131,120.956461,"Aytaks Pares, Mami House, and Restaurant"
14.299969,120.956638,Onestop bar resto
14.637241,121.0281965,Klownz
13.4281957,144.6487474,Molly Mcgee's
11.1517926,123.8059857,Yooneek Bar
8.0587316,98.7483773,Sabai ba bar
12.8952188,100.8886734,Blush
13.7620197,100.4935959,Jazz Happens
18.7604078,99.0789773,
18.7567841,99.076003,
18.7548765,99.0549772,
14.6093156,121.0809819,121 RestoBar
14.609259,121.080928,Salamangka
1.3322971,103.942732,
12.9012543,100.8687407,Fantasy Bar
10.3121834,124.0066727,Tiki Bar @ Bigfoot Mactan
35.6645045,139.7113019,カフェ・ラ・ボエム
35.6104267,139.7438729,立ち飲み 鶴川
6.8323269,125.4163402,SEABALS RESTOBAR
11.0188678,124.6016974,Jungle Bar and Grill
35.7109207,139.7975062,神谷バー
10.7672775,106.69391,Go 2 Bar
35.6607307,139.7386747,Garden Dinner
35.6608956,139.7431228,Mayur
35.6589393,139.7419254,L'espadon
7.0693208,125.6140853,Green Store
14.5594496,121.0253797,Commons Bar
35.713097,139.794072,えみ (Emi)
35.7138108,139.7926489,カラオケ館 (Karaoke-kan)
35.714758,139.7929438,居酒屋だるま
14.6346828,121.0374671,Zausycho Bar
14.6356281,121.024087,Marinara
14.6356997,121.0241619,Stoutmeisje (formerly Catwalk)
14.6356628,121.032423,Baia Luna (in Sir Williams)
18.7459137,99.1186778,Olarn House
52.0210571,113.4965041,Аромат
31.2123608,121.440432,
31.2123231,121.4430995,
31.2123638,121.4403553,Arcade
14.5653496,121.0294674,Tribu Diwata
35.7117766,139.7099551,The Harley
35.675503,139.735459,Bar del sole
35.675503,139.735459,Bar mar
11.0088194,124.6075644,Buffy's Bar
14.6426906,121.0322059,57th Bar and Restaurant
9.1925326,123.2709337,Pool Bar
35.008557,135.762696,Loki ACADEMICA
14.6156625,121.0701901,Gypsy Magic
11.5707458,104.925784,Sharky's
12.9287055,102.4983974,Diamond Crown Beer Garden
14.5837095,121.1668506,Deo's Hideaway Bar
30.5175971,114.4175486,港饮之港
14.5876793,121.0645128,Aruba
14.5876805,121.064408,Jinji Korean Bar
14.5872726,121.0643959,Kudos 168
14.5871434,121.064206,Decades
18.9456688,102.436241,Climbers Bar
14.6382183,121.0306797,Gulp Club
15.1434171,120.5593585,Azur Bar & Grill
10.0994407,99.8289162,Diza Bar
13.8109618,100.0464659,บาร์วันทูทรี
9.9137733,118.8771279,
11.0437963,125.7063213,Floating bar
11.8110807,102.4765252,Cafe del Mak
43.7849006,131.948797,"Интернет клуб ""Лимон"""
43.8012997,131.9364766,Империя
7.7418735,98.7729656,Slinky Bar
7.7416225,98.7734705,Apache Bar
7.7427124,98.7738398,The Stones Bar
7.4215914,125.7898367,Highway 50
7.0653924,125.6102753,Ecstatic Pyramid KTV & Restobar
7.1086846,125.6138375,Shindig Bar
7.0526708,125.5982707,D' Event Restobar
7.0103782,125.5054235,Pengay's Place Bar & Resto
18.1568553,120.5226053,Passion KTV Bar
35.6956599,139.7689274,世界の山ちゃん
7.0878058,125.6136385,K Bro Resto Bar
7.0815536,125.6132621,Fat Bobby's
35.5632698,139.4638444,スマイル
7.0815509,125.6133813,Starr
14.5588611,121.0225031,Bugsy's
7.0974836,125.602992,Mamu's Resto Bar
7.0851853,125.6108306,KL Ktv Bar & Billiards
7.1339054,125.6865122,Vangie Pool Bar
13.7305467,100.5323211,Boys Bangkok геи
13.7306043,100.5322996,Dream Boy
7.0412103,125.5780633,Jade Resto Bar
17.5744732,120.3866071,Epectos Bar & Grill (pinapaitan & lumo-lumo)
7.0670821,125.6127243,Jive Piano Bar & Restaurant
7.061132,125.5569764,Don Julian Resto Bar
50.2319946,136.9123252,Империя
7.1105192,125.6471072,Frankie's Resto bar
10.0332915,105.7734382,3D Café
7.1019398,125.632484,Siko0mo Sports & Resto Bar
7.0878911,125.613655,The Original Ktv Restobar
35.8665522,128.56806,Oppa Pub
14.6432708,121.0269371,Metro Concert Bar
14.6768964,120.5348889,Tangway Grills & Sushi Bar
14.6766802,120.5352959,Km 8 Restobar
14.6412186,121.0264916,Taverna Eleazar Bar & Grill
14.6411597,121.0264794,Hermes Sports Bar
14.6482419,121.0286363,Brassrail Music Lounge
35.1221575,137.0083206,Kind of Blue
13.956263,121.5712627,G51
35.1225903,137.0088731,風神
36.9202854,140.7976223,A J
36.9197943,140.7974292,園
50.3017951,127.5233258,
31.315058,120.6679353,Blue Marlin Bar
14.5372265,120.9954576,Music 21 Plaza KTV
31.3109909,120.6685166,Nana's easy spoken bar
31.3039579,120.6786442,Tunnel Bar
14.609417,121.0810864,Gweilos
36.9540311,140.8541636,ブラジル
36.9548317,140.8559314,美智
36.9545041,140.8596135,フォールヴァン
36.9496089,140.9075742,スフィンクス
14.4533201,120.9750837,Kabisera
7.4420586,125.80255,D' Bar
15.049336,120.6663561,
15.2063772,120.579948,Engrande
31.2416526,121.5805039,
16.4283771,102.8308177,U-Bar
22.2808,114.1547,Wagyu
39.1065615,140.2914405,タイム
14.5631523,121.0293415,Vila
14.6398808,121.0376155,Homer's Bar
14.6398903,121.0328323,The Beech
7.078324,125.6095163,Draft Pick
30.898864,103.57115,山门前茶馆
31.5882362,130.5545095,辰巳屋
11.5751591,104.9264099,Lady Palace
11.5698794,104.9297287,DV8 Bar
39.3926266,140.0507177,キャスタウェイズ
17.4220874,102.781943,เพลินจิต ชิดลม
7.0663748,125.5828601,Kai's Bar
14.4373445,120.9905257,Central
1.2544114,103.8135892,
17.9496926,102.6191763,Paris Cocktail
14.4454425,120.9930365,Angel Case KTV
31.2122003,121.4393885,
31.2051262,121.4222248,Cotton's
1.2776691,103.8460375,Boulevard
14.4456815,120.9926392,Brickyard
14.4454919,120.9929584,Starlady
8.1493297,123.8497847,Gatz
14.5542583,121.0450386,Mozu Cafe Bar
7.8969329,125.0847409,Big Tree
31.5786679,130.543507,まどか
31.5794448,130.5430216,居酒屋八十
39.3924986,140.0510112,ソケット
39.3870734,140.0554932,
8.6955906,123.3930691,Pirates Disco Bar
8.6953592,123.3929818,Cockpit Bar
8.647897,123.4177185,Wines & Spirits
15.0331347,120.6932566,
15.4846731,120.9576714,Harvey
14.5523238,121.0450481,Barcino
6.3490892,125.2679817,D' Peak Resto Bar
43.1109102,132.3507934,кафе-бар «Малибу»
31.589498,130.555758,情熱酒場 (Jonetsu Sakaba)
14.5811556,121.0308029,Chef Arch's Lime
31.5385647,130.5350789,八
31.5437735,130.5380622,しゃぃにぃ
31.5435802,130.5386846,スナック志津
37.507386,139.9317032,白木屋
13.7591942,100.4968826,Silk Bar
33.5571205,133.5165555,かにごく道
12.9298078,100.8845426,Orn Bar
31.5925554,130.5537504,Buta penguin
48.4987014,135.0727938,
48.4896821,135.0628689,
48.4789075,135.0528089,
13.7592261,100.4953383,Gazebo
13.7585971,100.4984729,Brick Bar
13.7556631,100.5033034,Club Culture
31.5918425,130.5446309,かねだ
35.489876,139.626479,Brixton Market
31.2359482,121.5772594,
47.0409706,142.0409571,Гамбринос
34.3914656,132.4551357,Kemby's Cafe
14.4804402,100.1235525,
14.4808428,100.1230644,
15.702913,100.1248594,Bon Bon Club
13.8461336,100.575738,ร้านโค้งสัตวแพทย์
31.5810185,130.5426807,わいわい
31.580745,130.5426353,万八 (Manpachi)
35.7085035,139.6145859,月光蟲
14.5442573,121.0111304,Best of Luck
3.154322,101.7082488,Thai Club & Bistro
6.1121607,125.164346,Casa Goatan
35.669128,139.751477,えんかい
50.2969676,127.5202102,Большая медведица
10.9500937,108.2543775,
31.539388,130.533742,味のセントラル
35.1702842,136.9226722,Adriana
44.1624983,133.2669543,магазин Забота
18.2911593,99.4924001,Riverside
25.0519465,102.7084662,
35.657733,139.6964676,K's BAR
11.3285537,124.1140005,Bar-Ko
42.8063126,132.8745869,Dolce Vita
7.774422,98.3254481,Why Not Bar
13.7542485,100.6270479,Dream Pub
13.7543215,100.6268283,3rd Pub
9.550684,123.7723138,McDonald
18.7764996,99.0372635,
35.6968112,139.7980168,松喜
35.695567,139.794612,佐渡蔵
35.7540136,139.7356981,ひよこ
18.7574403,99.0758545,
18.7579709,99.0762514,
18.759872,99.0777439,
35.120789,138.91622,みしま未来研究所
35.5483174,139.718727,スナック やよい
14.0709021,121.3276699,Enyitos
12.9772584,123.98668,Azys Bar
12.9781339,123.9860203,Butter Cup Bar
37.3467794,139.3191641,スナック優
35.1523743,137.5380617,スナック　ミッキー
50.2633092,127.5359688,Piplz
4.2354409,100.6378128,Jooks Bar
15.2330835,104.8642105,U-Bar
0.8131174,112.9342287,Cafe/Karaoke Bangkong
0.845258,112.9225796,Cafe/Karaoke Bougenville
0.8693368,112.9203424,Cafe/Karaoke Do'i
0.7948607,112.9322617,Cafe/Karaoke Go-Go
0.8615016,112.9226819,Karaoke Apollo
43.889767,125.3042051,Classic Bar
35.7840311,139.8995985,New Club
35.7841072,139.8996737,TAPA's Bar
17.9651396,102.603035,Billabong Sports Bar & Grill
14.2751324,121.4489439,Fresh & Green Lodging Inn Open Bar
14.5693049,120.9864602,Minokaua (formerly 1951)
1.6055845,124.780665,Bamboo
18.7846675,98.9941774,Som's Place
3.1538395,101.714666,Sky Bar
31.2132893,121.4394507,The appartement
52.2607336,104.3107031,House Mafia
43.1221706,131.9044237,Киото
12.9707637,123.9978636,888 Grill and cafe
35.6569777,139.7517359,PIKE PLACE
14.6298407,121.0339961,Zirkoh
47.9146723,106.9153202,MB Pub
18.7841342,98.9961438,Sweet Heart
14.6386785,121.0384921,East of St. Louis
14.638673,121.0385993,Motorist Sizzling House
14.6765155,120.5310477,Petrius
14.6865138,120.5391509,Quinta
14.6865608,120.5392966,Calero
14.6353195,121.028743,Cuisine Centrale
35.9226725,139.4824028,ゆり
6.6357895,124.5974259,Comida Bar
35.0981534,139.0738995,くろんぼ
18.7912157,98.990758,Roots Rock Reggae
18.7912197,98.9904314,Babylon Bar
18.7910577,98.9904008,Full Moon Bar
18.7913953,98.9941853,Dude Bar
18.7925887,98.9944685,Soi 1 Bar
32.0428326,118.7887204,Party时代KTV
16.4089454,101.1615149,Present Bar
14.6349639,121.0231999,The Executive Health Club
16.469186,107.5945229,Why Not ? Bar
14.5611187,121.0247724,Rue Bourbon
35.6859364,139.700791,リトルデリリウム
11.9420762,108.436625,Envy
9.3102282,123.3085488,Captain Ribbers
9.3085468,123.3091299,Garahe
35.647823,139.7466601,GAIA
35.647864,139.7454378,K's BAR きらら
35.6487406,139.744864,MON
35.6488218,139.7449303,バロン
14.895251,120.5391064,
14.5506826,121.0201825,Merk's Place
14.5338584,121.0516537,Blackwood Bistro
35.7827165,139.9136239,胡録
35.783156,139.9125993,カオリ
9.2995818,123.3032063,SunDown RestoBar
9.3223305,123.2991567,Payag sa Likod
14.2650019,121.4055289,Sheilanger
35.6678086,139.757838,炭火BAR 集
8.6666071,98.2530186,Lazy Bar
14.3507201,100.6062602,Cowboy Bar
12.9316478,100.886615,At Star All
12.948071,100.89679,@ Club
12.9303839,100.9406179,Butterfly Bar
12.920554,100.960567,Number One Bar
12.9363335,100.9306596,Joy Joy Bar
12.9302074,100.8808876,Meeting Point
12.9297751,100.8803872,Wonderful Bar
12.9489823,100.8888302,U too Bar
12.9348797,100.8860918,Tiger Beer Bar
12.934784,100.8860187,Micky's Beer Bar
12.9347177,100.8861385,Ma Mak Beer Bar
12.9346684,100.8862301,Pussy Beer Bar
12.9364785,100.8827827,Lucky Star Beer Bar
12.9365271,100.8829022,Tiger Bar
12.9365613,100.8828368,Poppy Bar 2
12.9286856,100.8779345,Africano's Cave
12.9303183,100.881338,Tims Bar
12.9304957,100.8824594,Papagayo
12.9301327,100.8844505,Billabong
12.9299777,100.8846752,The Drunken Duck
12.9302301,100.8845192,Kilkenny
12.9305324,100.8860099,Pook Swan House
12.9325307,100.8903953,Harry's Pit Stop
12.9267596,100.8865015,Buffalo Bar
12.9292457,100.8887812,King's Club
9.4636119,100.0429261,
9.4627335,100.0424325,
9.4631568,100.0421107,Mai Ling Bar
9.4633897,100.0424862,
9.4639609,100.0428459,
9.4643315,100.0427437,
9.4645723,100.0426887,
9.46432,100.0425008,
9.7701107,98.4112394,Monkey Bar
9.2542796,105.6395249,
12.9248931,100.9050293,Beer and Coffee
12.9271478,100.9082285,Dao Bar
12.9236654,100.9097103,Paradise Bar
12.9072031,100.9198588,The Bird Cage
12.9096201,100.9172879,KIK
12.9297633,100.9381555,Top 10
12.9291568,100.9245567,The Pussy Cat Club
12.9294496,100.9286046,The Brass Monkey
12.9303803,100.9198038,Top Cool Retreat
10.7137394,122.5533314,
12.9262329,100.901708,Old Hounds
6.489998,99.3073716,OMG
6.4897239,99.2976086,Mia Luna
8.2282022,124.242241,Kyla's Bistro
8.2422917,124.2485048,Z Resto Bar
8.2263247,124.255609,Fam bam
8.2262044,124.2552403,Sunburst
3.1017451,101.6461367,Waikiki Bar
35.6453787,139.7534162,さらり
12.8045549,99.9865063,Baan Chan
10.7053366,122.5519197,Jaq's
26.2109698,127.6786086,チェントロ
12.9400513,100.8908787,Duck Bar and Resturant
12.9407198,100.8905149,Sun Shine Beer Bar
12.9424332,100.8881808,Bar Bliss
12.9422563,100.888097,Malee Bar Beer
12.9425551,100.8883741,Capital Bar
12.943504,100.8889186,Fin
12.9443274,100.888578,One Bar Noi 3
12.9456343,100.8889235,Yuth Bar
12.9455129,100.888921,Toy Beer Bar
12.9453097,100.8884183,Melodies Bar
12.9362812,100.885054,World Wide Bar
12.9361534,100.8853066,Red Wanda
12.9364094,100.8847465,Celtic Kings
12.9348604,100.8857306,One Step Beyond
12.9346145,100.886131,Memory Bar
12.934642,100.8860853,Glue Bar
26.2179301,127.6873019,Vividly
12.8904937,100.8751059,Walkabout
12.8980898,100.873217,Apple Bar
12.9020999,100.8692913,Man Bar
12.0288235,102.2926252,Filou Cocktaillounge
35.6710658,139.7413137,APACHE
35.6712123,139.7403221,ワインバー シャトー T・S 赤坂
12.936857,100.8880266,Love Bar
12.9367801,100.8879793,Planet Bar
12.9280972,100.8870811,Hot Man
12.9266906,100.8863364,The Castle
12.9184602,100.8717483,Soho Bar
12.9143145,100.8721046,Jade House
12.9165419,100.8712008,BBC
12.9134648,100.8711176,Tappaya Blues Bar
12.9120382,100.8695616,Bobby's Pattaya
35.0317595,135.7289042,
12.9380806,100.8940024,Outdoor Club
14.5737522,120.9905005,Jefz Cafe
32.2033509,119.460653,Muse
32.2008342,119.4600536,Picasso
32.2099353,119.4508939,1880
12.9013537,100.8686576,2 Donna Bar
12.9008497,100.8687397,The Winner Bar
12.9013792,100.8691118,Pour House
12.9014666,100.8695833,Three Roses
12.9005523,100.8683316,Hot Legs
12.9003877,100.8681764,Drink Cafe Inn
12.9018613,100.8689407,QM Bar
18.7972945,98.9759974,Dae Jang Geum
13.8395442,100.5733728,
12.9521881,100.8890917,Route 33 Bar
12.952255,100.8885614,Why Not
12.9539032,100.889743,Strip Bar
12.9538658,100.8897148,Nice Bar
12.9522456,100.88923,Cock Tail
12.9535908,100.8891771,Barracuda Bar
12.953482,100.8894762,Honey Bar 2
12.9538284,100.8896866,New Lucky Beer Bar
12.9537535,100.8896303,Bamboo Beer Bar 1
12.953791,100.8896585,Ta & Bu Beer Bar
12.952848,100.8889173,Jack Bar
12.9524724,100.8886265,Pit Bull Place
12.9523606,100.88875,Bulli Bar
12.9522895,100.888925,Pit Bull Pool Bar
12.952407,100.8885931,Skylab Beer Bar
12.9525448,100.8886598,Flamingo Beer Bar
12.9523493,100.8888286,Sansi Bar
12.9550166,100.8901867,Dream Bar
12.9550651,100.8902224,ไทเกอร์บาร์แอนด์เกสท์เฮาส์
12.9549597,100.8901444,Ryan's Bar
12.9562438,100.8895323,TJ Music Bar
12.967005,100.8846681,Leo Blues Bar
12.9559155,100.890076,Linda Beer House
14.5531538,121.0139411,Cartier Music Lounge
14.449726,120.9816763,Flaming 5
14.5590935,120.9844025,Zucchero Resto & Bar
12.9316421,100.8794573,Tahitian Queen Rock and Roll
12.9278214,100.8773256,Madam-T
12.9264552,100.8733177,The Moon Club
12.926669,100.8736263,V2O Ice Bar
12.9261911,100.8736111,Lucky Carousel
12.9262098,100.8726424,Margarita Station
12.9260239,100.8725288,Blue Sky III
12.9261065,100.8724044,Galaxy Cabaret
12.9253354,100.8710725,Club Abyzz
12.9252174,100.8706772,Rolling Live Bar 2
12.9250714,100.8703555,Utopia Rock House
12.9001112,100.8688649,Country Club
12.9003486,100.8691734,Flying Dolphines
12.8993799,100.8676437,Country Road III
12.897566,100.8687152,Kobthong
12.8970104,100.8691577,Aew Beer Bar
12.8972638,100.8689035,New Friends
12.8974343,100.8687314,Blue Flower
12.8979456,100.8696894,Jaan-Jah
12.8976489,100.8694948,AC/DC
12.8966888,100.8694085,The Windmill
12.8970573,100.8699514,Eagle Bar
12.8959488,100.8710721,Toto and Lulu Beer Bar
12.8956878,100.870945,Roskilde
12.895839,100.8709326,Eagle Bar 2
12.8956394,100.8706673,Mama's Bar
12.8958376,100.8702094,Pupay Beer Bar
12.8955764,100.8707986,Tordenskjold
12.895655,100.8709014,Fungo Bar
12.8956232,100.8708603,Cowboy Bar
12.895756,100.8710335,Shooter
12.8955967,100.870822,Honsehuset Beer Bar
12.8960443,100.8702615,Angle Beer Bar
12.8964693,100.8708216,Easy Bar
12.8965266,100.870887,Tuk Bar
12.8960184,100.8702181,Tikky Beer Bar
12.8960887,100.8703476,On the Rocks Beer Bar
12.8967742,100.8712676,Ping Pong Beer Bar 2
12.8968518,100.8714009,Ping Pong Beer Bar 1
12.8976002,100.8723898,Ping Pong Beer Bar 3
12.897497,100.872268,Anzac
12.8971491,100.871982,Bua Beer Bar
35.7009075,139.7417722,ファイン (Fine)
35.7009238,139.7417856,deep
35.7009445,139.7417937,OZ
5.3509583,100.4428329,30thirst
8.0475721,98.8012703,
18.7858648,98.9995976,Foxy Lady
14.5368673,120.979185,Bawod Bar
13.7522661,100.4982287,
35.1687418,136.9350263,music Cafe&Barつるのり
35.1695827,136.9357238,Chicken Boy
35.1665747,136.9394131,アポストロフィー
35.1594512,136.9195483,Dolce Vita
14.5761075,121.0382964,Club Mwah
35.8873923,139.6489074,御酒処縁
14.737298,121.0581058,Padi's Point
11.6118552,102.983248,Ban Peakmai
10.3815568,104.4887379,Oasis Bar
10.1902435,103.9683726,Lee's Safari Bar
10.2042875,103.9635929,DS Bar
10.204892,103.9642109,Paradise City Club
10.6234022,103.5241854,Cheap Charlie
12.2482291,102.5090876,My Bar
22.5905786,88.4209203,Mishra's
35.658582,139.6981168,bee
35.6684999,139.6514596,Kuni
35.6910729,139.7086935,
43.3560547,132.1958413,Домино
12.9297522,100.8836338,Heart Beat Beer Bar
12.93044,100.8815161,NID 2005 Bar
3.0948277,101.5983393,Sangam
12.9299315,100.8847422,Metro
39.2750904,141.8813789,ジャズタウンホール
9.536854,100.069779,Bar@c
12.8979988,100.8732503,Sexy Girl Bar
12.8981842,100.8732005,Star Bar
12.8982182,100.8747913,Sabai Sabai Club
12.8982441,100.8734492,Buddy's Bar
12.8981947,100.8732648,Wonderful Jomtien Bar 1
12.8982822,100.8735855,Wonderful Jomtien Bar 2
12.8981959,100.8736136,Jane's Bar
12.8981069,100.8736352,Double D Bar
12.898204,100.8740724,The Laughing Bar
12.8983149,100.8737555,Jimmy's Den
12.8981278,100.8738079,Rum Dum Bar
12.898222,100.8737744,Minny Beer Bar
12.8980671,100.8734947,Tik Tak Bar
12.8983541,100.8739166,Piss Bar
12.8981671,100.8739636,Tennis Bar
12.8983841,100.8740214,Don't Tell Mama
12.8982887,100.8740483,Mustang Ally's
12.8984324,100.8746303,Enjoy Bar
12.8984599,100.8743512,Boat Beer Bar
12.8984677,100.8747631,Have Name
12.8985515,100.874743,Puy's Place
12.8983284,100.8741877,Party Girls
12.8983723,100.8747913,
12.8983983,100.8745106,Tequila Bar and Grill
12.8983134,100.8745362,Simple Life Beer Bar
12.8983432,100.8746561,Casandra's
12.8983749,100.874378,Country Road
12.8982795,100.8744075,Garry Bar
35.6909832,139.7064284,珍獣広場
36.334513,137.2965702,
12.8957113,100.8707673,Skandi Angel
35.6609811,139.6977695,金の蔵
35.6613319,139.6981329,金の蔵
35.6607451,139.6994683,PRONTO
35.660538,139.6981111,SALASA
43.0673867,141.3473203,Electric Sheep Bar
35.6626309,139.6973421,Rhythm Cafe & Bar
35.6624995,139.6973163,Barquinho
35.6627379,139.6972146,Cafe and Dining and People
9.4656416,100.0444297,Boxing Bar Center
9.4638543,100.0426835,
9.4636427,100.0425548,
9.4637538,100.0426299,
9.4649229,100.0444661,
9.4648171,100.0446002,
9.464738,100.0447448,
9.464869,100.0461114,Chillin Bar
35.663958,139.6968934,Zarigzu cafe
35.6641823,139.6967375,belami
35.6636082,139.6993245,dinner 868
35.6625892,139.699446,Kurage
35.6626063,139.6971849,Rock a Holic
35.6635856,139.6993246,Under Bar
35.6626842,139.6971499,のどか
9.5435012,100.0215382,Gecko Bar
35.7844684,137.6944506,バー紅蘭
7.8290189,98.3024907,Pool Bar BVR
10.3160708,123.9026475,El Garaje
43.1131181,131.8809322,Roshimi
36.6211799,101.7700979,
13.7283505,100.5328854,Tapas Bar Club
13.7445515,100.5559684,The Nest
35.6605301,139.702077,Tsukasa
35.6602621,139.7020831,北海道
35.6611684,139.702098,ばりばり亭
35.6611689,139.702062,もんごろーや
35.6611873,139.7020956,八虎
35.660909,139.7020794,呑つ道場
35.6612811,139.7020941,永山本店
35.6611448,139.7020991,渋谷一蔵
35.6606466,139.7025059,JAM DINNING
35.6606472,139.70257,しばらく
35.6601863,139.7025175,だしや
35.6597433,139.7028634,真希
35.6602831,139.7025391,菜な
35.6597513,139.7026785,金の蔵
35.6604841,139.7027776,風月
35.6598268,139.7032741,鳥ぎん
35.6606454,139.7026029,4
12.9324369,100.88499,Big Love Bar
12.9343492,100.8869801,Allex Bar
12.9343846,100.8867777,Phimai Geordie Beer Bar
12.9343914,100.8867185,Good Win Jambo Bar
12.9342822,100.8872923,Crew Bar
12.9343059,100.8871935,Zee Beer Bar
12.9269624,100.8829687,Sweethearts Bar
12.9258202,100.8811779,Jake's Bar Beer
12.9260212,100.8808118,Chicky Bar
12.9259866,100.8808959,Maew Noi Happy Bar
12.9259557,100.8809722,Sam's Bar
12.9259079,100.8810688,Number 1 Bar
12.9258725,100.8812553,Pim Stars Bar
12.9261419,100.8809366,Sensations Bar
12.926091,100.8810398,Money Bar
12.9262486,100.8810898,Full Moon
12.9262866,100.8810377,Juventus Bar
12.9262117,100.8811403,Belle Bar
12.9259735,100.8811709,Sugar Bar
12.9261158,100.8809849,The Manchester Bar
12.9259261,100.8812134,KoChoRan Bar
12.9300755,100.8847411,Waterwall Lounge Bar
12.9301989,100.8845656,Time Bar
12.9301577,100.8846209,The Golf Club
12.9300264,100.8846047,Red Five Beer Bar
12.9298278,100.8848925,Harry's Bar
12.9298728,100.8850656,FCUK
35.6568406,139.7012725,金の蔵
12.9274493,100.9511163,GB Pub
12.9205701,100.9606616,The Lair
35.6561388,139.7013645,BULERIA
35.6563234,139.7009122,NALU
35.6563614,139.701122,TIOTIO
35.656235,139.7011379,あいびき
35.6563969,139.7010315,ちょいマス
35.6562806,139.7009758,ほんじん
35.6563784,139.7010852,トォンテジ
35.6562182,139.7008093,ハノイのホイさん
35.656159,139.7013108,月光
35.6562782,139.7010086,白秋
35.656175,139.7013435,秋吉
13.6964692,100.4078537,หาดหัวหิน
12.9348183,100.8862051,Boom Boom Beer Bar
12.934739,100.8863515,Mr Bean Bar
12.9348554,100.8861367,Blue Angel Beer Bar
12.934771,100.8862925,The Purple Bar
12.9330124,100.8842769,Happy Enjoy Beer Bar
12.93306,100.8842092,Dew Drop in
12.9330285,100.8841781,The Guitar
12.9329788,100.8842502,Aussie Barracuda Bar
12.9329647,100.8843447,Lovely Bar Beer
12.9329291,100.8843223,69 Sixty Nine Bar
12.9331685,100.8842867,Daokai Beer Bar
12.9328694,100.8844801,Winston Bar
12.9328296,100.8844664,Made In Bar Beer
12.9326885,100.8847495,New Life Bar
12.9327831,100.8846202,Somkid Bar Beer
12.93272,100.8847064,New Ben Beer Bar
12.9328794,100.8843943,Lucky Bar
12.9327516,100.8846633,Crazy Beer Bar
12.9329171,100.8844124,ICU Bar
12.9326308,100.8847547,Sanuk Bar Beer
12.9326805,100.8846826,Temptations
12.9328147,100.8845771,Happy Days Bar Beer
12.9327799,100.8845385,Ed & M Bar
12.9327302,100.8846105,Candy Bar
12.9325571,100.8849928,One Bar
12.9325811,100.8848267,Lek Lek Beer Bar
12.9326569,100.8847926,The Cowboy
12.9324962,100.8851718,Number One Bar
12.9326254,100.8848358,Jeffy Bar
12.9336913,100.8875963,Extra Bar
12.9337495,100.8874019,Joy Bar
12.9337166,100.8875265,Smurf Bar
12.933726,100.8874673,Delight Food and Bar
12.933615,100.8873693,Karjala Bar
12.9293662,100.8860126,Shanks Bar
12.9293316,100.8859205,Excite Club
12.928959,100.8852018,Barbie Drink and Food
12.9288282,100.885466,Smugglers Bar
12.928936,100.8852484,Whiskers
12.9283927,100.8864855,Enjoy Man
12.9281398,100.8868462,Maggie May
12.9283191,100.8863902,The Rest Stop
12.9280284,100.8870892,The Growling Swan
12.9280529,100.8870393,Yellow Fever
35.655479,139.6992457,MIRAPOLIS
35.65599,139.7004357,PARCO GIOCHI
35.6560661,139.7004767,TOMMY'S ROOM
35.6568193,139.7008632,belmare
35.6559718,139.6999497,daylight kitchen
35.6550752,139.6994085,okazaki
35.656511,139.7009462,桜丘ワヱン酒場
35.6564391,139.7009104,羅針
35.6555396,139.6992582,高太郎
35.6581447,139.6991507,IZAKAYA　VIN
35.6579838,139.699901,corn barley
35.6581956,139.6994442,suzuki
35.6576701,139.6996392,きざみ
35.6583099,139.69971,さくらさくら
35.6580135,139.6999636,ちゃんぽん
35.6579653,139.6991038,はなこ
35.6578607,139.6992749,むつ湊
35.6580199,139.6993531,もへい
35.6583152,139.6997468,わさび
35.6577755,139.6994267,ギン酒場
35.6580085,139.7001121,八吉
35.6579638,139.6994248,凹 KUNI
35.657921,139.699178,多古菊
35.6578801,139.6996401,天下鳥
35.6580184,139.6990477,天松
35.6580849,139.6992776,天狗
35.6580939,139.6991902,山家
35.6581806,139.6992132,山家
35.6582053,139.6993236,山家
35.658197,139.6992786,東京ホルモン
35.6582299,139.6994368,河童
35.6577127,139.6995426,渋谷 bar FIVE
35.6580662,139.6992657,神楽屋
35.6579933,139.6999457,笑笑
35.6576432,139.6995463,隠れ野
35.658283,139.6997293,魚民
35.6580476,139.6989879,鳥竹
35.6583338,139.6997257,黄金の蔵
35.6578807,139.6988041,guinness bar
35.6581161,139.6995134,sede tharros
35.6577424,139.6991105,㐂久
12.9363495,100.8829327,MC Bar 2
12.9364453,100.8829673,MC Bar
12.9363836,100.8830699,Hang Loose Bar
12.9363044,100.8830046,Star Bar
12.9361257,100.8833649,Oh La La
12.9361823,100.8834295,Monna Beer Bar
12.936052,100.8834863,B52 Bar
12.9360158,100.8835459,Smiler's Bar
12.9361289,100.8835244,2 Nite
12.9359363,100.8836392,Rolling Live 3
12.9359104,100.8836946,Best Bar
12.9358255,100.8838286,Sam's Bar
12.9357868,100.8838907,JD's Bar
12.9357517,100.8839454,EM's Bar
12.935857,100.8839916,EO Beer Bar
12.9356016,100.8844052,Joy Beer Bar
12.9356578,100.8843087,King's Bar 2
12.9354293,100.8846748,Enjoy Beer Bar
12.935464,100.884617,ILE Bar
12.9353097,100.884726,Patsy Beer Bar
12.9349336,100.8853097,Planet Beer Bar
14.9807621,120.6175554,
10.1108928,99.8348079,Mango Viewpoint
39.8467914,116.1742416,No.1 Test Bar
48.9662168,140.2867318,Greezly суши бар
24.983271,102.7251428,一家酒吧
10.6493574,122.9397525,MO2
34.7146149,135.2397368,AHU
13.7888497,100.5953667,บานชื่นรื่นอารมณ์
12.8785425,100.8888449,Apple Bar
12.877365,100.8856445,Tequila Sunrise Bar
26.3361401,127.7980792,クラブフジヤマ
35.4456367,139.6372789,secret club EVIL
34.8178459,137.3897833,
11.5721829,104.9282577,Dream Bar
11.570982,104.9285339,Horny Bar
11.5716652,104.9278365,Hooters
11.5724694,104.9285768,88 Bar
11.5746976,104.9264874,Oscar Bar
11.5748582,104.9267391,Zanzibar
11.5748882,104.9267923,Marine
11.5747495,104.926581,Air Force
11.573232,104.9279036,Happy Man Bar
11.5731927,104.9276643,Ben's Bar
11.5725666,104.9281262,Vicious Cycle
11.5700354,104.923819,Cyrcee
11.5666234,104.9235212,My Lien
11.566789,104.9234943,Pitstop
11.5662976,104.923564,Howie (closed)
11.565935,104.9236472,Shanghai
13.4319351,102.3651847,K-1 Club
3.8124147,103.3704356,
45.7671907,126.622746,Blues Bar
45.7646161,126.6221344,Maisa Club
45.7656519,126.6217879,Russian Disco Bar
13.7331614,100.5628593,Palm @18
34.2305933,135.1905108,洋食果実酒場 ミソノバル
35.688826,139.698391,紀州屋
15.7834547,101.0038964,มักจี่
0.791999,127.3897257,Platinum Karaoke
14.6093638,121.0810344,Liberty
20.7246532,107.0495631,The Noble House
42.823466,141.648379,びいど楼
14.4493054,120.9816773,Blue Sapphire
42.9205633,143.2036863,鳥せい 帯広中央店
42.92092,143.200672,食飲場
42.920474,143.204877,蓮花
42.920665,143.20573,つぼ八
42.9203685,143.2028764,ひげちゃん
34.6740074,135.4770906,フリーク
35.8370717,139.9221421,ふたば
35.8371151,139.9221153,ゆきちゃん
35.7025731,139.544145,メロディーハット
42.9224289,143.2023372,BARBITAL
14.1028166,120.9418617,Station 15
11.9988537,120.2024238,Bistro Coron
14.5745284,120.9848909,The Euro Zen
1.3053105,103.8532817,Zasofi Tapas Bar
31.5698116,130.5529459,WoodStock
39.9915676,116.3200165,蚂蚁吧
35.1559765,136.9150005,STRIKERS ストライカーズ
34.7356727,135.3598926,
51.0944626,128.3799757,Берёзка
51.0932557,128.3680603,
9.548254,123.771584,Gingging Bistro Sari Sari
9.5521854,123.7731047,Sunside Resto and Cocktail
9.641837,123.854515,"Gerry's Grill, Bar and Restaurant"
9.8563129,123.7862659,Jolly Roger Bar
35.7115137,139.5813894,SMOKY
41.759105,123.3923557,
52.2858749,104.3171622,
34.79543,134.6175018,どん底
35.6766988,139.6743418,ALBORE
16.0239887,120.3239179,Padi's Point
16.0226533,120.3258347,The White Hat
16.0226244,120.3257443,Stargreen Promenade
16.0555166,120.3404496,Disc Capsule Ktv Club
16.0395626,120.3379048,Music Warehouse
16.0541368,120.3407407,808 Superclub and Ktv
16.0385585,120.3347325,Blue Jam
16.0229038,120.3258928,Pretty Tipsy
11.5677811,104.9234004,Love Bar
1.2951307,103.8534677,Long Bar
12.9079033,100.908164,Aon Bar
35.6578772,139.6989663,ずくなし
35.6578122,139.6990105,日比谷Bar
10.2849593,124.7857412,girl friends house
35.505525,139.4262191,Pergola
10.7718973,106.7005703,Club 61
10.7760827,106.7034287,Saigon Saigon Bar
8.1619952,125.1239982,Harvy's Sports Bar
12.9386207,100.9252716,Top 10 Beer Bar
15.1659413,120.580704,Eruptions
14.4238988,121.0265048,The Perfect Pint
35.6504478,139.5496297,ビーナス
18.7835004,98.997628,Ball Bar
18.7834711,98.9978513,Chuan Chom Bar
18.7834058,98.9978472,Marina Ladyboy Bar
18.7833541,98.9978451,Jenny's Happy Bar
18.7833021,98.9978424,
18.7832958,98.9977719,Icy Grant Bar
18.7833065,98.9976734,Sakura
18.7833148,98.9976064,Meeting Bar
18.7835621,98.9976586,Rainbow Bar
18.7836438,98.9978121,The Flash Bar
18.7834462,98.9975863,Poppy
18.783394,98.9975545,New Star Bar
18.7835568,98.997359,Shamrock Bar
14.4518382,120.9781077,Musicbox 25
35.6494007,139.5570429,小料理 ふじしま
12.9291846,100.7827107,Beach Bar
35.6624025,139.5858704,Jei
14.070501,121.3255439,Zylos
12.9765161,123.9872811,
12.9780425,123.9857871,Ray music bar
34.3919697,132.4655987,サロン・ド まつ本
35.7819462,139.7192461,Bar Spoon style
12.8914553,100.9931924,Polo Club Bar
11.565984,104.9317459,Blue Dragon
18.8307329,99.0339641,GJ Bar & Restaurant
19.8786676,99.8302687,
10.29358,123.9877625,Wombat's Womb Cafe
11.3269572,124.1185225,Pirates Bar
11.3271369,124.1157828,Haifisch Bar
11.3271564,124.1151757,
11.3278921,124.1139184,Maldito
11.327328,124.1167481,Little Mermaid
11.3271491,124.1150744,
11.3290108,124.1193057,
18.7977449,98.9672559,Madbar
18.7982802,98.9687103,Club Cafe
18.7976084,98.969166,Rush Bar
35.5147172,139.427292,Triple D
26.2008814,127.6761688,TWO-THREE
35.6950487,139.705273,Dart Bar ZERO-ONE
35.5498929,139.7162378,クルーズ
12.9310189,100.8942023,Relax Bar
12.9305601,100.8942766,Wanda's and Smitty's
12.9296265,100.8944238,Boomerang
26.2177885,127.7240178,くいものBar TANTO
12.9337875,100.8877917,Paddy's Bar
36.8786802,127.204016,예
35.6995609,139.7668527,
35.6994348,139.7671831,泡貝
6.4939242,124.8375884,BAMBUO GRILL
35.3608784,139.3901269,ステージドリーム
12.2475666,109.1888543,
35.4672511,139.5028919,ワイルドジャイブ
35.467214,139.502967,ロードスター
37.2542092,127.1091793,
37.2542775,127.1104539,
18.7422066,99.003105,Mouth to Mouth
9.1526876,99.8740191,CC Beach Bar
12.9159082,100.8794678,X-Centrique
17.403854,104.7876044,
17.4041822,104.7870782,
17.4047145,104.7877112,
17.4039979,104.7874322,
14.5631895,121.0288083,Moulin Rouge
14.5635039,121.0302471,Blush
14.5634279,121.0300774,Dandasha
14.5642788,121.0310675,Girly's Lounge
14.564355,121.0310908,Jools Cabaret
14.5635542,121.0303934,Maskara
14.5638396,121.030834,Montana
14.5629828,121.0288647,Pappillon
14.5633593,121.0298584,Plan B
14.5635333,121.0303256,Rascals
14.5632784,121.0299179,Tickles
14.5642961,121.0309033,Wow Wow Wow
14.5635259,121.0310339,Makati Sports Bar (MSB)
36.8936523,127.1372728,BEER BOSS
12.9266913,100.8862561,Dao Bar
12.9359188,100.8963679,Central Sport's Bar
12.9295101,100.8801126,Bodega Bar
12.9319562,100.8828846,Rosco's Good Everything Beer Bar
12.9435871,100.8883164,Aom Beer Bar
12.9203617,100.8963007,Hog's Breath Saloon VFW Post 9876
9.7399972,118.7464719,Tio Rod's Restobar
9.6747389,100.0680942,Drop In Bar
9.728874,100.0387636,Air Lounge
12.9480161,100.8886216,Lisa Coyote Bar
7.4419247,125.8180595,Ma Inday's Resto
8.1598834,125.1257492,Malaybalay Plateau Disco Bar
8.1600878,125.1254139,Laurel's Bar
35.6404682,139.6125352,パブロ
12.1093333,102.2700095,15 Palms Bar
12.938385,100.9258504,19 Hole Sports Bar
35.4371046,139.3627979,未来
35.4371439,139.3628328,パピプペポ
35.4390014,139.36327,Jin
7.8941372,98.2963569,
7.894185,98.2965124,
7.8938875,98.2965768,
7.893999,98.2964749,
7.894371,98.2967163,
7.8942328,98.2966948,
7.8938768,98.2962549,aussie bar?
7.8938662,98.296432,
7.8937812,98.29655,
7.893999,98.2978482,
7.8940044,98.2962764,
7.8940734,98.2966143,
35.7365296,139.7335576,たろう
12.9292817,100.9276339,Chill Bar
12.9296966,100.9292998,Riverside Bar
12.9241599,100.9079423,Le Rouge
12.9236382,100.9098421,Flintstone Bar
35.737826,139.7320787,OCEAN
24.0830543,120.5584988,就是愛現
30.5891963,114.2971029,外滩音乐茶吧
30.5899628,114.2974033,名人世家夜总会
35.6431526,139.6667259,Bar Pon
31.2365,121.4863416,魅力上海
22.0264992,121.5498489,豆芽菜咖啡酒吧
9.7766005,100.0535238,Sand Bar
35.149318,136.9034255,Spech Baloon
14.5635362,121.0299147,Player's
35.648518,139.7458135,BALLY'S Grill & Bar
27.6760597,85.3138375,Vesper House
36.3627386,127.3522603,더랜치펍
14.4045633,120.8602732,Nights
14.4045785,120.8600801,Tres Bonitos
24.0833947,120.5585296,隨緣珍珠奶茶
24.0835413,120.5570416,Tea's原味
12.9133733,100.8802514,Saloon Bar
12.9115503,100.8799878,Cadillac Bar
39.365542,141.9013962,PUB PARADISE
39.3660062,141.9010136,のばら
9.4655889,100.0445203,The Supergirls Bar
3.098065,101.6786915,Star Cafe
16.7572823,100.2034101,
16.7524976,100.2003468,
16.7525258,100.2004085,
12.9260634,100.9530042,Outback Golf Bar
12.9558475,100.9270877,Relax Bar
12.9326975,100.9666691,My Friends
12.9328924,100.9667469,Pat's Bar
12.9240568,100.9715466,Drop Inn Bar
12.9202369,100.9700021,Billabong Golf Bar
12.916029,100.9271155,Black Hole
12.9158775,100.9153406,Black Sheep Bar
35.7006211,139.7705409,SIXTEEN
35.6848889,127.9109993,친구야 (Chingu-ya)
10.05028,105.7902883,Ớt đỏ
3.5426311,98.1261788,Rock Inn
13.7279272,100.5304878,Woodball
35.7115367,139.7105014,お前まんまるやん！
35.7015171,139.7721511,天使と悪魔のCafe&Bar pray
35.7286826,139.7723193,Salud!
34.6950506,135.7811261,Uogen
16.7529146,100.2011247,
24.4462643,118.0838497,Helen's
14.6350991,121.0233786,Chaparral
13.9055339,100.5202541,เก้าอี้ไม้
13.904883,100.5202595,แจ้งวัฒนะ
17.9650146,102.604761,Le Sen
17.9645198,102.6069917,Wine 95
34.6850574,135.8117657,
34.6847972,135.8116181,
49.10586,140.2676535,Space
35.6032214,139.5179036,ベラミ
42.8619654,140.7084354,Yoko Oh-No's
14.6095292,121.0811657,Rue Bourbon
35.472538,139.641211,Pola Star
1.2645233,103.8054874,
35.694121,139.7044337,BAR キャロット
35.6948507,139.7039576,
9.8121601,126.1613679,Patrick's on Cloud9
9.8123345,126.1610085,Ocean 101
35.6939354,139.7046423,BRIAN BAR
35.6938268,139.7043072,CHAMPION
35.6939716,139.7047082,Golden Dust
35.6940067,139.7044323,ナナ
35.6939579,139.7044054,OIL
35.6938023,139.7044067,Peg
35.6939346,139.7044886,SLOW HAND
35.6938172,139.7043409,ami
35.6936588,139.7048535,bar plastic model
35.6938396,139.7049571,psychobolic shadow
35.69405,139.7044567,洗濯船
35.6936771,139.7047982,石の花
17.9689847,102.5933942,Marktwo
18.7327585,98.9258014,
18.7205658,99.0002908,
18.72067,99.0001942,
18.7206674,99.0000493,
18.7204445,98.9993173,
35.6655698,139.5802147,鈴
18.7442231,98.9950137,
18.7440717,98.9958422,
18.743805,98.9966493,
30.6662293,104.095485,纯品酒吧
35.7056538,139.5771359,BICKE
11.5696954,104.9047194,Heng Heng Bar and KTV
35.6625121,139.7265773,APPRIVOISER B.B
35.6620057,139.725377,FIRST
35.6624917,139.7265163,スピリタス
35.6615736,139.7235713,COHIBA
35.6598198,139.7214331,こしひかり
30.6735459,104.0981641,留言水吧
35.7296362,139.5418632,カラオケモコモコ
35.6902603,139.7072497,ドラゴンメン
7.5762928,99.0325577,Freedom Bar
35.6627456,139.7116012,Farol Bar
7.0566491,125.5997901,Nobi Alfresco Bar
35.6785127,139.6776587,RISE
35.6307319,139.4480073,カフェバー環
10.7767817,106.7040443,Centro Bar
10.783112,106.6980911,Bến Thành
10.7704248,106.6943359,Chill Skybar
32.2172259,119.4480159,俊男酒吧
32.1944762,119.4755646,鑫建酒饮商贸公司
12.9198335,100.8938339,Telephone Bar
14.602517,120.9851384,Solvent KTV Disco Restaurant
36.8268991,127.1346608,KOMODO
36.8280521,127.1340037,아라
35.6378447,139.6927557,吉だBar 祐天寺
1.4570151,103.763943,Roost Café & Bar
35.6247257,139.7218777,DARTS BAR TONPACHI
14.5587332,120.9839192,Blue Flame Wave to the 80's
14.5589681,120.9843618,Cap'n Generations
14.5586277,120.9839782,Coal
14.5591222,120.9844453,Jazz Simple Ambiance Resto Bar
14.5667202,121.0654864,V8 Baresto
50.1031279,136.4967873,
10.773196,106.7020888,Kem Fanny
10.7747478,106.7009703,Kem Bạch Đằng
43.1522282,141.3607124,
26.3292717,126.8063922,Cafe bar
26.3322119,126.8083821,スナックなな
26.3305932,126.8078212,スナックひなちゃん
26.3329222,126.8087465,くまのみ
26.4483634,127.8038746,Chicken Heart
26.3133759,127.7555924,Hawaiian Juice Bar
26.4472018,127.803894,ピンクマーリンクラブ
26.1337737,127.762457,
26.4350085,127.7840652,ココナツムーン
26.4364513,127.7982683,シーキャプテン
15.8756148,108.3275428,Che Bar
15.8766338,108.3279121,Q Bar
35.6423944,139.7483934,日比谷Bar DINING 田町店
14.0636247,121.3239325,
35.4955661,139.632775,K's BAR
27.7353383,85.3162267,Salsa Bar
14.4271413,120.8923667,Waypoint Grill
37.0570463,140.894051,もも
37.057055,140.8941288,舞
37.0570372,140.8938713,しんじゅく
37.0570436,140.8940043,らべんだぁ
37.0570416,140.8939721,ドリーム
37.0570569,140.8941595,ひさこ
37.0571101,140.8938431,かぷり
37.0571277,140.8940295,都
37.0571299,140.8940859,ありがとう
37.0571166,140.8939239,さかもと
37.0571212,140.8939786,しんらく
37.0571085,140.8938187,ニューアイ物語
16.4132076,120.5968309,Rumours Bar
9.7245366,99.9787472,Amsterdam Bar
14.5807447,121.1778306,Padi's Point
35.705576,139.9726688,いつか
35.705608,139.9726114,銀の雨
16.4117826,120.590996,Alberto's Bar and KTV
16.412012,120.5911536,Baguio Angels Super Disco Club
16.4121871,120.5913343,Chairman's KTV Lounge
35.1460545,136.9039482,Brattoria
16.4136241,120.6179306,Redazn Restobar
35.6693909,139.760578,Christy
35.6695966,139.7608838,ブルーモルフォ
35.6693039,139.7590134,BAPBUR
35.6695201,139.759144,YEBISU BAR
14.8019,120.5360076,Resto Bars
24.4760714,118.0702648,Havanna Beach
24.4764956,118.0703367,Me & You 2
24.4751242,118.0700073,JJ Bar
12.9325022,100.8852509,Ron's G.T. Bar
48.6016968,135.5942367,
7.7397867,98.773165,Dojo
7.4825332,99.088111,The Dream Bar
7.4829286,99.0874485,Yellow Bar
35.5537825,139.6459918,BAR VALHALLA
31.3033564,121.4898074,
7.8936169,98.2966631,Pink Paradise
7.8938256,98.2957069,Shipwreck
7.8935916,98.296362,The Black Horse
10.5737945,99.2759168,Sabai Sabai Bar
42.8592656,140.7057263,Tomashii
12.1028539,102.2740948,Monkeys Bar
12.1001461,102.2747346,Honey Bar
42.8580705,140.7075615,Half Note
42.7756149,132.8675022,
18.7881454,98.987363,The Writers Club & Wine Bar
18.7850891,98.9925029,Yokka Dok
43.2057589,131.9545111,
34.6770427,135.4704883,Suave
37.5065417,139.9339673,スナックエール
31.224631,121.4420152,JA Cafe
35.160104,136.890981,Amitie
7.856771,98.29265,kais restaurant
35.7037288,139.753474,
35.6512709,139.7525087,cabot cafe
42.901422,140.7513689,Ground Pub Niseko
42.902326,140.750466,Bar Eddy
12.9321942,100.9203539,Ying Bar
12.9292135,100.9215897,Red Bar
42.9029468,140.7519635,Pokke
42.8606889,140.7046226,Wild Bills
32.2132615,119.4367492,佳茗茶庄
12.9488738,100.8892178,
12.9489614,100.8894632,Cat Bar Beer
12.9488829,100.8889711,Party Palace Bar
12.9489117,100.8888302,Geordie Bar 2
12.9488803,100.8890515,The Farang Connection
12.948883,100.8890113,Shadow Bar
12.9488751,100.8891762,Nuch and Ice Bar
12.9488607,100.8894619,
12.9489588,100.8895758,Old Kloster Beer Bar
12.9489666,100.8893478,Nice Beer Bar
12.9488882,100.8888945,Rita Bar
12.9488581,100.8896751,Old Yuri Beer Bar
12.948879,100.8890904,Yupin Bar
12.9488594,100.8895732,Apple Bar Beer
12.9488699,100.8893425,Why You Forget Me Bar
12.9488724,100.8892607,Wasana Beer Bar
12.9488856,100.8889348,Happy Bar
12.9488764,100.8891306,Koracha Bar
12.9489562,100.8896751,Cosy 1 Bar
12.9489908,100.8888952,
12.9489718,100.8892031,Choup Choup Beer Bar
12.9489784,100.8890823,Ooh La La Beer Bar
12.9489692,100.8892594,Lucky Bar Beer
12.948981,100.8890313,Love You Long Time Beer Bar
12.9489875,100.8889362,Nooky Beer Bar
12.9489745,100.8891441,Jolly Beer Bar
12.9489849,100.8889751,Noi Bar Beer
12.948734,100.8891896,Geordie Bar
12.9450264,100.8887333,Atlantic Bar
12.9452613,100.8888003,Cherry Bar
12.9451567,100.888776,Bamboo Beer Bar 2
12.945209,100.8887894,INTIRA Bar
12.9418178,100.8877488,Corner Bar
12.9423522,100.8881647,Pool Bar
12.9426149,100.8882158,Nook Nick Bar Beer
12.9424816,100.8881915,Music Lover Bar
12.9423099,100.8881137,All Country Bar
12.9429676,100.8880164,Cosy Bar Beer
12.9436963,100.888352,Ann Bar Beer
12.9455736,100.8889223,One Bar Noi
12.9200062,100.9140069,Mango Pub
12.9229163,100.9115995,NOY-T Bar
12.9165265,100.9150546,The Thirsty Beaver
12.9123997,100.9165694,Angels Bar
12.9097095,100.9174867,Um Im Bar Beer
12.9096075,100.9171863,Pacha Pattaya
13.7419704,100.5438502,Cafe Trio Jazz bar & Art Gallery
13.7419919,100.5436886,Wine Loft
13.7796255,100.545086,HOBS (House of Beer)
35.657587,139.685965,さわやか
35.657478,139.687334,居酒屋かこ
35.6575661,139.6867033,英香
12.9229066,100.9537232,Lucky Bar
12.9289462,100.9225508,Taffy's Sports Bar
12.9290605,100.9217245,Moonies Beer Bar
12.9290971,100.9214026,Black Bush Bar
12.907779,100.909456,Pat's Bar
12.9078174,100.9087049,Emmys Bar
12.9076848,100.9069106,Bee Bar
12.9077973,100.9071439,Ballon Bar
12.9086162,100.9032472,The Local
12.909436,100.8998422,The Pub
12.9096773,100.8984907,Rod's Bar
12.9079097,100.9071546,Load Out
12.9078129,100.910089,The Booze Lounge
12.9079123,100.9087224,Leks Bar And Massage
12.9071253,100.9198683,Full Moon
12.9078536,100.9192261,Samorn Bar
12.9248375,100.926952,Last Kitchen
12.9291131,100.9227872,D'aietti Bar
12.9289393,100.9227884,Road House Bar
12.9291901,100.9218978,Noi Blume Bar
24.0795515,120.5442505,海尼根
35.6458027,139.6969323,Wisky & Wine Bar
35.6473937,139.6942643,焼き鳥　栃木屋
35.6432685,139.6969595,華
35.6441916,139.6985439,wine
35.6434552,139.6978039,とりビアン
35.6432448,139.6975999,一平
35.6438686,139.6982076,串八
35.6432661,139.6976248,北の恵
35.6436957,139.698042,大樽
35.643923,139.6982624,炉ばた焼　ごっつあん
35.6434258,139.6977657,青キジ
35.6503405,139.684555,CHAD BEER & CURRY
35.6501283,139.6792758,
35.650423,139.6752805,scoria
35.6534911,139.67225,うなぎ やきとり 山崎
35.6602414,139.6727919,五郎
35.6597768,139.6728005,杉の子
12.2410056,109.1946558,3gBar
34.571536,135.482174,たろやん酒場
13.7799401,100.5450185,Hobs Away
12.9289102,100.9230739,BB Bar
48.5357212,135.0387663,Серая лошадь
18.7524993,99.1051552,King Kong
13.7210341,100.56903,Five wine bar
34.575223,135.48337,まいどまいど
14.6318954,121.0218414,Moomba
13.7589218,100.4974577,Roof Bar
35.5630772,139.6930569,パンドラ
47.0550489,142.0455301,Lider
13.2842354,100.9168232,Cool Bar
13.2208169,100.9361699,Crystal Beach Pub
34.6966805,135.5122031,COCONANO
10.7291036,123.8253791,D' Jackals Bar
7.7410789,98.7725706,Sunflower
47.9581311,106.8400359,
35.6398196,139.5988959,モンプチ
34.6999931,135.510469,
34.6983476,135.5117366,立飲み桜
10.0675862,99.8286907,High Bar
7.5616234,99.0374979,Mixing Bar
41.7802128,123.4357899,
24.0785177,120.5195692,總統府啤酒廣場
21.0532288,105.8340964,21 North
24.1146442,120.4950685,波霸鮮榨果汁吧
12.9165925,123.5836403,Dos Orio Bar and Restaurant
9.5722314,99.9895181,
9.5733457,99.9899936,
14.8347864,120.2691377,
10.1978414,103.9638018,Rainbow Bar
43.3556837,132.175012,кафе гостиницы АРТЕМ
12.9206309,100.8625086,Big Mountain
12.9205682,100.8623401,Country Road Hill
1.290008,103.8372885,Tap
1.2900634,103.8372015,Botany
1.2895993,103.838777,Boomarang
1.2902013,103.8369706,Bar Bar Black Sheep
13.7043729,100.501964,
13.7043782,100.5017627,
13.7044536,100.5018674,
13.7042188,100.5018728,Checkmate Bar & Bistro
35.4793617,139.4001448,神風
35.4794142,139.4001475,りばーす
7.6487209,123.2667815,
13.7050353,100.5022268,HAPPY FISH
35.1673275,136.8775552,U-ree
13.7051187,100.5023072,
11.1822046,119.3922631,Template Bar
11.1809296,119.3907217,Sava bar
35.3451082,139.8995513,グリーングラス
19.3587605,98.4447658,Witching Well
39.9552158,116.4082123,Nobel 16 Club
13.8341995,100.6118726,hobs
13.8341969,100.611827,tell me wine
13.8341839,100.6116286,SlamDunk
29.8695981,121.5650828,Legends Bar
29.8696406,121.5649555,Elsas Pub
29.869689,121.5647869,Sherley's Bar
18.7850005,98.9942055,Wan O Wan
18.7850701,98.9939735,Butterfly
29.8682288,121.567329,Phonix Bar
51.2110269,109.2319893,
12.929286,100.877552,Aromas of the East
35.660558,139.724013,Sato BAR
50.5388572,137.0210152,Адмирал
34.719229,135.4832389,Tee&Bar パー5 (Par 5)
34.7197538,135.4842661,立呑み処 まる
34.750432,139.353754,大衆酒場 薫
19.1939488,99.5143886,ส้มปาก
34.7528057,139.3527962,ちさと
34.7501003,139.3547781,すなっく愛加夢
9.5661907,100.0044573,My Bar
13.3549125,103.8547059,Khmer Family Restaurant
34.1171073,139.5252377,NRITANO
10.315793,123.9025986,St. Mortiz Bar
35.7895568,139.2604581,関忠
35.700938,139.41905,たかちゃん
34.69758,135.533853,まるふじ 串かつ
34.69764,135.533838,まつい 酒房
13.7035887,100.5027872,
9.8388248,98.4436486,Thai Bar
34.4394133,133.1914997,九鬼BAR
34.4097712,133.2068091,Gallery Bar 夢喰
25.0156468,121.3103191,運動霸 BAR
34.683116,135.517619,松崎屋
35.686886,139.696724,Velco
35.7591808,139.3141925,居酒屋めぐ
35.760333,139.311221,Danilo's Bar
14.5516633,121.0489367,The Coconut Club
35.6592095,139.3456442,ぺシュール
35.768088,139.30854,スナック しづか
34.8184603,137.3898471,酒房仙花
35.4676478,139.6223798,やきとり お加代 本店
35.4673145,139.622688,津軽みどり
35.6972684,139.4131783,sign
35.6089286,140.1188751,Grace
35.488739,139.626949,Calvados
20.1283472,99.818862,เจนจิรา คาราโอเกะ
35.67835,139.692947,庄屋
35.9969307,139.5593379,スナック 忍
35.703209,139.559446,JESSE JAMES
20.1372761,99.8515271,Sozy
15.4691748,120.9806848,Liquid Bar
35.487597,139.626092,Sammy's
35.488327,139.626566,Wasabi
35.6853719,127.9123806,미당
43.7663757,142.3598446,マチバル
35.787573,139.284799,居酒屋 かつ
35.787564,139.281197,いまここ
13.7212222,100.5170726,Sky Bar
14.5493855,121.0477633,Craft
14.5494961,121.0475595,Imperial Ice Bar
14.5494168,121.0477197,Scarlet Wine Lounge
35.7887893,139.2618569,瀬音
35.79002,139.273792,コイズミ
35.661912,139.720471,プチゴリラ
7.064422,125.5964257,Woodiz Tea Bar
13.7631168,100.4987091,Asahi
39.8611371,116.4384114,张小刚
34.7205609,135.4830192,JAKARAカフェ (JAKARA Cafe)
34.720561,135.4830003,龍の酒場 CAFE DU DRAGON
38.4301085,141.3071414,復興バー
34.8486779,136.9036179,
34.8471855,136.90122,
34.690933,135.546251,奈良屋酒店
11.5714654,104.9279338,The Fire Bar
14.4481954,121.0277899,Jeek's Resto-Bar
35.1422226,136.9049754,Bar HANG LOOSE
14.448538,121.0280942,Embargo
14.4483198,121.0281666,Liq-Nuts
14.4483302,121.0282256,Exit
14.4483354,121.0282632,Oldies Pastime
14.4483302,121.0283061,The Barn
14.448325,121.0283651,Irish
14.4483146,121.0283973,Yamashu
14.4483042,121.0284509,Romalif
14.4480497,121.02829,Baby Cats
36.0627427,136.22157,HARVEST BAR Taste
36.065632,136.214989,NAVI×BAR
35.725452,139.908202,shine
35.671246,139.726194,PiADiNA
44.2614239,135.0575816,Хрустальный
38.433758,141.303616,STARRY
38.4336524,141.303615,glass garden
38.433679,141.30393,うわぬま
38.4345967,141.304194,庄や
38.4336361,141.3068735,味彩 しん家
42.4428472,123.557863,小老板烤吧
35.945203,136.184694,デフォルト
35.6268674,139.7220207,SNATCH
8.0323877,98.8251065,Amy's Bar
14.7548441,120.9523755,Ibayo Grill
36.0607047,136.2214045,Swing'n Base
36.062349,136.218827,FANFAN
38.434017,141.309038,やきとり おおば
38.43343,141.306531,鳴海
38.433711,141.307693,ニュー魯曼停
38.4332592,141.3067004,旬鮮居酒屋 ごくう
38.4326098,141.3049003,CRUISER
38.432884,141.305128,DINING BAR GINGA
38.432915,141.3066992,呑栗
38.432238,141.307525,日和ホルモン
38.4327424,141.3067825,居酒屋 食いしん坊
38.4327925,141.3067907,えんや
38.432236,141.304887,U-2
38.431803,141.306501,水澤屋もっちゃん
38.432877,141.307217,魂
38.432088,141.304535,SHOOT
38.431781,141.307722,K
38.431577,141.307623,時代屋
38.431447,141.307155,柳ちゃん
38.431291,141.306776,立ち飲みや えん
38.431092,141.307119,RIO MALL BLDG
38.429799,141.305742,居酒屋 喜楽
38.431436,141.308078,酒房ふ
38.430967,141.307497,酒山崎
38.4320705,141.3088596,TROUT
38.43077,141.307828,BASARA
38.430393,141.307508,KNOT
38.43518,141.310072,こうちゃん
36.066976,136.215015,スナックtotto
36.06699,136.214946,ダイニングバー cheers
34.953629,135.7064288,y.igrek
36.066977,136.214333,和風スナック 広小路
36.06665,136.214563,スナック 稚
36.066109,136.214409,すなっく トモエ
36.064539,136.214949,Benny's Bar
36.066405,136.216344,BAR 空
36.06571,136.215807,ル クラブ
13.9209436,122.103239,Gumaca City Coast
35.6487409,139.7456077,トップタートル
35.447781,139.638058,ドーバーラウンジ
35.447753,139.638111,孔雀
20.4154754,99.8849898,Chill Chill
43.3305986,132.0880381,Блюз
24.1470129,120.4854056,阿猜
24.1471156,120.4862882,茶本味
36.3266978,127.4251605,Wa Bar
35.727478,139.9065,かねこっ亭
17.9577505,102.6313376,Sea Sunset
35.6563633,139.7375178,
35.6883031,139.696729,Ale
10.6094253,103.5234958,Sihanoukville Square
35.388008,139.61823,立呑酒場 はちまる
35.386843,139.619292,立ち飲み 日高
35.7058094,139.6823482,驢馬駱駝
35.346178,139.476937,クラジャ
35.3457071,139.4794534,リメッタ　バル
35.3481694,139.4777309,スナック　鴇色
35.433378,139.60476,おしゃれ泥棒
35.433369,139.6047,スナック ふーみん
35.437196,139.61435,立ち呑み処 ころりん亭
35.437273,139.614471,スナック萩
35.394774,139.610213,ファミリースナック 光子
35.393882,139.614214,スナック ココナッツ
35.65929,139.715621,KURA
35.393442,139.611995,ホッピー うなぎや
35.6468877,139.6286419,Cock & Hen
14.6227014,121.1147379,Rock and Ride
14.6474968,121.0642935,Sarah's
36.087876,136.23567,six
35.435202,139.618329,bar Ki
35.4404519,139.6234111,スポーツバー oasis latino
36.128226,136.22027,breeze
35.38752,139.617634,Blondie
35.387578,139.617769,ナイトシャーク
35.387552,139.617783,聖
10.0819867,99.8228192,Karma bar
7.0912014,125.6181952,Alcohall
35.388319,139.616645,K bar
12.035517,102.2934993,Sir Henry Morgan Pirates Pub
1.2847415,103.8510968,1-Altitude Rooftop Gallery & Bar
1.2960994,103.8533685,Loof
1.3001585,103.8546364,Hood Bar and Cafe
1.2802935,103.8416614,The Library
34.9520145,135.7003811,のり子
34.9532648,135.7043659,テラ
48.48714,135.0789733,ПодZемка
33.2370545,131.6050206,Macy's Bar
12.8549906,102.6124278,Dream Palace Entertainment
12.3049703,103.0972205,KTV
12.2412216,102.5125674,Oscar
17.624697,121.7346741,Paragus
35.6797172,139.6830005,La Siesta
35.6705207,139.6901309,Haccho Miso Bar
35.6767127,139.6741158,PONすけ
34.7461204,127.6701741,WABAR
35.6623493,139.7352651,Wall Street Bar
35.7291815,139.7637852,Cupid Shuffle
35.6620649,139.7346719,Sea Treasures Cafe
35.447254,139.628511,GONZA
10.6116393,103.5301376,
10.610474,103.5270703,
10.6125051,103.5301763,
10.6109739,103.5259923,
10.6109423,103.5286638,
10.6130366,103.5292793,
41.772942,123.4158364,
35.4444673,139.6268724,FOOTPRINT
35.6762017,139.6677967,Rim Shot
22.2783005,114.1710495,The Canny Man
22.2857231,114.1589623,Red Bar
22.2809042,114.1553444,Geronimo Shot Bar
22.278666,114.1701437,The Wanch
22.2954573,114.1720177,Felix Bar
22.2797029,114.1552367,Hush
22.2860562,114.2159126,Sugar Bar + Deck + Lodge
22.278055,114.1708616,Trafalgar Bar
13.7390853,100.558436,BeerVault
13.74155,100.5558579,The Pickled Liver
13.7433481,100.5405146,Bar@494
13.726984,100.5743832,The Blck Swan
13.7317603,100.564805,Sport 20-2
13.7329418,100.5650606,Titanium Club & Ice Bar
23.0627418,113.1411433,Rich Baby
23.0622495,113.1414313,Victoria Fashion Club
40.0062072,116.5177313,Swing Bar
39.9446273,116.3945671,Bed Bar
35.3434251,139.6229787,喫茶スナック ぬくぬく
35.3434522,139.6229914,スナック有里
35.43773,139.61475,和みの城 ChaCha
1.2882924,103.8489574,"Actors, the Jam Bar"
17.883982,102.741589,Gaia
35.384465,139.615956,晴れたり曇ったり
10.0818821,99.825074,Baby rasta bar
35.6404592,139.7380568,CILL-DE-SAC
35.433677,139.603872,ミュージックパブ れもん
35.433097,139.604974,カラオケ スナック 押し花
35.4489209,139.6307319,Paradee
11.5583401,104.9199874,Eclipse Sky Bar
35.433137,139.603434,パブ スナック ひまわり
13.961279,122.5380915,Pier Coyo
34.9469432,135.7022579,ロぺ
34.9469446,135.7021978,まち
34.9469835,135.7021788,みゆ
10.3412302,107.0943068,Veranda Bar
34.231065,135.1906325,坐和民
35.7083296,139.7708323,ワイン子
35.7085863,139.7700367,ライタイ
36.063021,140.121318,Gold Rush
36.3269591,138.4222894,スナックこぶし
36.3274214,138.4228771,スナック ラブリー
34.5799771,135.4673187,しば田
34.5800637,135.4671657,八剣伝 堺駅前店
34.580696,135.467568,RITOROVO
34.5805834,135.4716792,白木屋
34.5806921,135.4714927,笑笑
1.2824611,103.8473149,Club Street Social
34.5782301,135.4731933,鳥貴族
35.7023094,139.7706661,本格ガールズバー Glitter
35.397157,139.616126,スナック極楽とんぼ
35.397196,139.61616,スナック 絹
35.396834,139.614935,カラオケスナック ボン
35.396828,139.614858,キャッツアイ
35.396847,139.614775,カラオケスナックひまわり
35.396792,139.614773,スナック 花束ブーケ
35.396824,139.614644,パブスナック 姫香
34.5800191,135.4672461,ホルモン焼
34.231449,135.190367,庄屋
37.4954413,139.9260205,スナックアトリエ
34.580417,135.467826,和旬洋彩 B.B.橋
37.4955054,139.927313,うおよしビル
35.395723,139.614426,居酒屋 カラオケ すい楽
14.6622506,121.6046286,The Nords Republic Bar and Inn
35.6646672,139.7303447,BLU
35.6648265,139.7308656,Obika
14.579676,121.0542242,Coal
14.5788433,121.0548325,Uno
34.685998,135.550124,たんじょうび
34.6908558,135.5477657,富紀
14.9223046,102.0996924,จิ้มจุ่มชาลี
35.944085,136.185304,loungeキララ
12.1086943,102.2701647,Sangtawan
15.1480242,120.972846,San Miguel Bulacan
35.6072577,140.1172306,Aroma
35.6087798,140.1178877,B.Fleet
38.123252,140.576883,じゃらんじゃらん
38.122587,140.57809,居酒屋童夢
14.5781202,121.0599271,
35.9146833,139.4773986,Saint Martin
35.6109374,140.1211363,めぐみ
38.2271998,140.721392,スナック エム
35.6058581,140.1143765,Gotham
38.329536,140.616229,スナック喫茶 ツーセブン80
38.744779,140.718401,スナック ドルフィン
38.744405,140.71742,酒処 夢
38.7422838,140.7156954,フィリピンスナック エマリ
38.7418834,140.715084,スナック金魚
38.7417704,140.7147516,奈々
38.744049,140.718201,和風スナック 遊
38.743461,140.71731,スナック 蓮
38.743389,140.717182,スナック 乾杯
35.6611023,139.7044128,セコ
35.6440764,139.6713192,ピガール
35.6082177,140.1226486,えん
35.94402,136.180084,幸
34.6887802,135.5170823,ショットバー らいふ
3.1478677,101.7069354,Havana
3.147929,101.7073119,20 Changkat Sports Bar
35.72107,139.922527,ROB ROY
11.6372804,102.5454539,Sunset Bar
20.2674157,100.4043854,The Hub
34.664588,135.505408,archa
34.6652522,135.5056056,千日前シアター
34.697456,135.487385,ワイン立飲み処
34.698112,135.494799,SABOTEN
18.7837818,98.9976897,Night Life
18.7840662,98.9977513,Blue Grass
18.7839343,98.9977272,Sexy Poompui
18.783853,98.9977084,The Shamrock
34.709415,135.515118,mack
33.9454589,130.9609387,角打
43.0576528,141.3583666,チャンネル
13.7604849,100.5030547,Zoo bar
10.3426053,107.075484,Phố Bùi Viện
10.3426966,107.0751938,Corner Bar
34.7056673,135.5041837,BASTONE
34.7031149,135.502566,四川餃子バル Pao2
34.7084,135.502351,cocoro
34.7473411,135.5332307,Garage
34.707042,135.510638,エレファントサーカス
35.7935942,140.2894026,
34.6918246,135.5070858,北浜ルンバ
34.6913895,135.5083368,真琴
34.700349,135.506211,D&A
34.70048,135.50618,ALWAYS
35.699166,139.414418,TACHIKAWA BARU
14.549459,121.0484309,Marco's
14.5496564,121.0484658,Primero Room 526
34.709206,135.511884,JOKERS WILD
34.666577,135.501179,HUB
34.667938,135.50156,PIENO
35.7478471,139.8265816,レッドシューズ
21.0257273,105.8563025,Bamboo Bar
35.7471015,139.8260209,ガールズバーHearts
47.4766766,101.4597548,Фэн диско
34.666331,135.499331,LOGIC
31.830637,119.971864,Candles Bar
47.774445,107.2543309,Bison Pub
19.9092092,99.8356602,
14.4494851,120.9820776,Boracay Bar and Grill
47.772771,107.2525209,Hazard
13.3323432,123.7415082,Palale Bars
35.664167,139.765583,復興バー銀座店
35.4460238,139.6391519,Bar Bar Bar
35.4481229,139.6442666,LIVE&BAR 風鈴
35.4481101,139.6442926,Seaside Lange SaLa
35.688436,139.697591,庄助
35.688996,139.697657,three BAR
20.4432842,99.8814105,MTV Karaoke
20.4446039,99.882331,
20.4411274,99.8833136,Narita
47.9217831,106.8659901,RichHill Hotel & Karaoke
47.9206088,106.908519,Доргио
10.0727114,99.8161385,Banana Rock Bar
10.1112597,99.8373747,Jim's Bar
10.1017871,99.8431238,
35.665166,139.7282,惣
35.563315,139.719374,FUKURO
34.668083,135.502018,JACKAL
34.668208,135.502206,CORE
14.5519572,121.0443408,Bardolci
14.5524106,121.0449087,Rue Bourbon
19.9030508,99.8324941,The Indian
19.9030388,99.8325742,Hangover
10.2858146,123.9989549,Buena Vista Restaurant
47.7373291,96.8589234,ЮБ Бар
34.9934864,137.0109407,DINING BAR 8
14.5541242,121.0497501,Skinny Mike's Sports Bar
7.5436174,99.0493269,Mong Bar
10.1134545,105.6213917,Quán Quốc Trung
35.1664757,136.8868744,D.U.M.B.O
18.7675046,99.0398281,
18.7682957,99.0401048,
18.7759502,99.0421256,
35.1655127,136.8955166,三蔵バー
34.6688037,135.5009636,Penguin's Bar
43.1365067,131.9271701,Миллениум
33.6998795,130.4407146,サンドウィッチマン Cafe&Bar
27.0713908,94.5593169,Disangmukh
43.0988241,131.9393568,ЧиVas
35.662214,139.735152,KARON
34.669528,135.501686,PORTONE
50.5780009,137.0668001,Пивной бар
34.694032,135.511762,週間マガリ
35.69657,139.449451,Gemstone
35.696928,139.414173,SOOYEN
35.5978394,139.7111036,サイドカー
35.5978494,139.7110869,ジョイ（JOY）
34.6511861,135.5809914,Mistique
34.666306,135.516394,ビーリング ボン
34.666256,135.515917,BATA2
50.5934543,137.0542811,Неаполь
35.6613834,139.6659476,808LOUNGE
14.5829669,121.0542249,Padi's Point
25.9808127,117.3592083,Blue Bird Music Bar
18.7444869,98.9606855,ชุมทางท่าพระจันทร์
52.244405,117.6948166,Ахтамар
25.0539058,121.5438195,The Brass Monkey銅猴子
14.0613431,100.5984805,Love
35.169452,136.922613,アビーロード
34.672799,135.505978,トラットリアバー
35.1494719,136.9034334,モンドール
34.697287,135.518281,立ち飲み得一
34.702517,135.51184,BACARDI
34.709945,135.495717,TIERRA
8.58327,123.3428458,Balai Resto Bar
14.5754224,120.9812973,Badonkadonk Bar and Restaurant
34.6505857,135.5795732,焼酎バー　りばーてぃ
16.4543285,97.637843,Asia World Beer Shop
16.4609257,97.6487396,Wa Tain Nann KTV
16.4657866,97.6502897,La Wunn Beer Shop
16.4594308,97.6469673,Lucky Palace Beer Shop
22.5211213,113.9333942,Suzy's Lounge bar
35.6973551,139.7736128,立ち呑み 串吟
35.7090287,139.666772,タラの丘 Irish Bar
11.2072734,125.0087658,Pwesto ni Dino
1.564655,104.2536163,
35.5186853,139.6338269,T's
14.5587134,120.9879694,Isis Club
14.5569489,121.1387769,El Pedro's Grill
36.646898,138.1885436,パール
36.6476384,138.1879038,卯月
24.7903055,93.0191348,Bear Bar Fulertal
24.7904171,93.0190655,Bear Bar
24.7925766,93.0011008,Wine Shop
35.678872,139.681118,Route 20
12.3587384,109.2773528,Drinks by the Beach
12.3557593,109.279426,Drinks by the Bay
35.695067,139.682229,CHIANTHI-PIETRA
35.459228,139.6294594,Licht
8.5864741,123.3379588,Fat Cat
13.7286197,100.5327679,Telephone Pub
13.7286757,100.5328443,The Balcony
34.6906662,135.5049615,YELLOW APE CRAFT
8.5990184,123.3456893,RUI
9.6936773,100.0761559,Eden Garden
9.6964145,100.0760776,Guy's Bar
9.6933441,100.075024,Stone Bar
13.7594375,100.4975278,Bangkok Bar
13.7592667,100.4979404,Cinnamon Bar
13.7596041,100.4986279,tam-sa-bai
8.5709904,123.3423312,ZPOL Bar
13.760381,100.4964529,
34.707285,135.513047,YOIDORE鯨
1.7501458,110.3138938,Escobar
35.5747995,139.6586802,ブラジル
13.7627186,100.4944763,Comme
13.7625001,100.4998349,
13.7629517,100.4999713,
13.7639364,100.499565,Little Bar
13.7601926,100.4941266,Gypsy's Lips
13.7596928,100.4987104,Red Deep
11.8248454,99.8024128,ฟองเบียร์
35.695892,139.667383,
13.7291428,100.5320885,Star of Light
13.7412464,100.5557456,Dr BJ's Salon
13.762664,100.4944006,
13.7592479,100.4960533,Hippie de Bar
30.1762497,121.244917,Danny's Bar
13.7590623,100.497806,Sanook
13.7589146,100.4977691,Sunset Bar
13.7562992,100.4985255,Tak Sura
14.5808038,121.1787719,ALCOH Bar
33.5928539,130.394836,Off Broadway
35.6550438,139.5677184,Chile
34.673447,135.503244,ROCO
22.2577903,85.8086368,'Diyeng' Rice Beer.
23.350289,85.3262418,Palash Bar
23.3602446,85.3573797,Gaon
37.5745996,126.9899496,Brew 3.15
42.9031456,133.910592,
9.6480228,123.149055,
1.2846154,103.860933,CÉ LA VI
13.7622298,100.494133,
22.5301078,113.9292047,Helen's
35.6985955,139.6827485,Wine Bar Trio
8.5371322,117.4325643,Myras Karaoke Bar
13.7593824,100.4986128,Lomprayah (Ship Office)
13.7589521,100.4977071,Sabai Bar
13.7591735,100.4959493,The Fabulous
13.759505,100.4982021,
13.7601437,100.496932,Au-Thong
13.7603408,100.4967132,
35.650243,139.445532,Bar Italiano
35.6500649,139.4492305,amicale
9.7919373,123.3487635,Sun Xi Beach Bar & Cafe
26.33756,127.804155,ICHARA
8.6470802,123.4173647,
18.79774,98.955642,บ้านนุ๊งโบว์
30.5334808,114.3336709,
35.6690911,139.3616569,dining bar Stop
22.2997714,114.1783491,噴泉咖啡屋 Cafe de Fontaine
35.2781604,136.8661672,小樽食堂
14.5714486,121.1359744,EM's KTV & Restobar
34.6766451,135.5042565,イタリアンバー 阿が佐
19.9065073,99.8311628,Bar Lamyai
34.67685,135.504709,
34.6822683,135.504236,クロスビート
34.685909,135.505455,
12.9304364,100.8787116,Nevada Club
43.0567951,141.3489898,瑠玖
43.057831,141.357333,三ツ星
43.057563,141.355885,炙り茶屋
43.0557381,141.3790959,流行屋
25.0523276,121.5279234,柏克金啤酒餐廳
12.9271308,100.8748064,Bamboo Bar
34.684509,135.502445,
32.0535736,118.7700037,Blue Sky Aussie Bar
35.3038085,136.7996661,タラちゃんイクラちゃんドラちゃん
35.3030994,136.7989729,ドラちゃん
14.7003444,121.0876612,Metro Bar
35.6249058,140.0999315,呼吸
35.3015939,136.7989656,海鮮居酒屋 はなの舞
5.978336,116.0695816,The Bed
18.7822191,99.0030174,
18.782591,99.0030023,
17.3931129,104.8038966,SmilePub Karaoke
35.3035462,136.8012065,いちのみや酒場
43.1637217,131.9138867,Ганс
14.46178,120.9696654,Karaoke Bar
14.4536146,120.9748185,Club 27
14.4528807,120.9756939,Ephisode KTV Bar
38.9261519,141.1365163,SILKROAD
18.925275,102.4483439,AK Home
18.9275014,102.4471493,Warm Up Cocktail Bar
18.9260342,102.4494353,Tifalcony Pizza
18.9570568,102.439924,
5.9262675,116.0767011,M-Cubed Bar
34.831803,134.690082,ルパン
34.830343,134.689615,HOSANNA
5.9759896,116.0716746,
20.8301891,106.6945619,Bia Rau Bình Dân
35.7291779,139.5400104,SHOUN
39.9107746,116.3864713,
32.057741,118.7697411,Craft Beer
35.7078835,139.651197,高円寺麦酒工房
17.5739061,120.3892938,Sitio Bar
43.0687253,141.3486496,エイト
39.9920789,116.3079408,
15.4503419,121.3378929,Demi's Kitchenetee
36.5627943,136.6524757,Bar KIRIKOU
35.6616831,139.6670151,
9.7569295,118.7477604,Silver Doll
14.6094603,121.0811393,Cable Car
22.3321809,103.8440586,Hmong Sisters
35.3031498,136.801672,FLARE
35.3042253,136.8006547,アコースティックベース ひこざえもん
13.7369287,100.5626005,
13.7369478,100.5623949,
13.7369671,100.5621753,Shark
13.7369907,100.5619099,Rawhide
13.7370118,100.5616698,The Corner
13.737017,100.5626353,Baccara
13.7370399,100.562403,
13.7370593,100.5621954,Sahara
13.7370901,100.5619049,Deja Vu
13.7371121,100.5617005,Country Road
14.4407469,120.9983049,Chillax
2.7203926,104.1522725,Ombak Bar
2.7202586,104.1516522,
34.692196,135.581905,まこと酒店
34.692168,135.581942,アジト
13.7514077,100.5317953,73 Bar
13.751501,100.532291,Chilling House cafe
13.751545,100.531985,Skate Cafe
13.751652,100.532306,Chang
13.751683,100.532029,Muay Thai
13.751869,100.5318537,
34.7586452,135.4982717,Buff
1.3039536,103.8504628,Hospoda microbrewery
39.9910302,116.3273239,2nd Place
9.7618933,99.9616498,Pirates Bar
35.1551285,129.0579654,BAR FOXY
35.1552127,129.0579707,Road BAR
35.1541419,129.0579878,BAR 3.14
34.70754,137.733249,DARTS BAR ROOK
34.7061899,137.7301306,Grulli
34.7061511,137.7299538,甘太郎
34.7071606,137.7310245,歌舞伎
34.7069636,137.7299171,バールMabuhi 1F
34.7069473,137.7298932,PIZZERIA EST
34.7065097,137.7289669,娯座樓
34.7068979,137.7299157,バール
34.7065801,137.7287824,あまの
32.9310575,117.3719004,
22.4807206,113.9284041,Captain's Bar
13.1132268,99.9434906,
13.1087216,99.9471456,เรา
18.795443,98.9666046,Magenta
18.7954672,98.9664588,Neighborhood
13.7326473,100.5649558,Underground Bar & Cafe
25.0492081,102.7031108,Hiker's Bar
35.7051067,139.5819126,Screwdriver
34.9728525,138.3838996,KENTO'S
35.3035233,136.801403,ガチバル
35.7080102,139.800691,634 BAR
35.7122842,139.8055572,IPCRESS LOUNGE
34.70356,135.5024912,ヘブンヒル
25.0522981,102.6796211,
25.0520207,102.67967,
25.0520768,102.6798003,
25.0440317,102.7078562,Vervo
25.0538121,102.6966508,
25.05454,102.6992909,
31.2106664,121.4638999,
19.3806407,98.4282952,
38.249497,140.8804179,ときしらず
35.2999963,136.8017347,岳音
23.9725458,121.6129312,Bagilu
35.907856,139.6274329,翠
31.2403725,121.4851904,Bar Rouge
35.713904,139.843276,Sean
35.713922,139.843233,neal
34.8857319,128.6037209,Bar Diana
14.5536214,121.0496896,Niner Ichi Nana
18.8254737,98.9576776,Six Seats Bar
35.7105127,139.6667673,Flow Chart
35.702887,139.685459,Bar Smoke Salt
14.6449634,121.052048,Family KTV
19.0426839,99.9348994,
14.6446522,121.0510194,Belgian Pride
14.6446157,121.0509354,Clerisy Bar
14.644565,121.0509978,Crystal Ship
14.6446805,121.0510194,Kyusinero Bar
14.6445695,121.0509401,Ompy's
35.7794823,139.720792,フィリピンパブ スティファニー
18.5838959,99.0559213,
18.5861042,99.051881,Chill Up
37.3867139,127.1154562,jbf
18.7979227,98.9622821,Twenty Two
35.907098,139.616526,アプリシア
14.4295786,120.9452114,iMusix Place
35.779543,139.723481,スナックポケット
35.782757,139.721943,Snack Sele
35.7010546,139.4811238,Vin Passion
14.5789965,121.0549745,Primos
22.2996364,114.1722581,Cocky Bar
10.6071263,104.1793901,Madi Bar
15.1664101,120.563776,Mirrors Club
15.167407,120.5872622,Shipwrecked
15.1672487,120.5882255,Equus
15.1672087,120.5881774,Arcadia
15.1671109,120.5865255,Atlantis
15.1662161,120.5823043,Ponytails
14.8511561,120.260483,AJIYA Bar & Restaurant
14.8513253,120.2618692,Crazy horse
14.8515377,120.2615171,Beer Bunker Bar
14.8508954,120.2628447,Club 20/20
14.851125,120.2586636,THUMBS STAR BAR
14.8510524,120.258142,FLASH RAT
14.8505668,120.2635217,General's
14.8508648,120.2630881,Liberty Call
14.8510338,120.2580657,Midnight Rambler
14.8513503,120.2604088,Rolling Stones Bar Subic
14.8514981,120.2612327,Rapscallion
14.8513135,120.2585519,Rascal's Bar
14.8492799,120.265013,Scorea sports bar
14.8514353,120.2621195,T-Rose
14.8506612,120.2633992,Toucan
14.8511441,120.2619147,Westpac sailor bar and restaurant
14.8513379,120.2610911,Wet Spot
14.8509837,120.2628086,Wild Island
14.8508638,120.2629417,Coco Lips
14.8513519,120.2605304,HUNKZONE malehub & comedy bar
11.3116257,99.5520114,Hornbill
39.9314491,116.4387785,
34.6987613,135.5342489,WEST SIDE
11.3471275,99.5653147,Poolbarcafe
34.6975076,135.5082165,ANTENNA
34.6978192,135.5037975,MOERADO
35.6512285,139.5517923,由希
34.7252363,135.5494074,Funny
14.4052281,120.9202392,
35.7119692,139.7085676,Outsider
14.4619068,120.9916325,Queen's Paradise
35.1691584,136.8788576,Salve
43.1109577,131.9456617,Хунь-Чунь
9.6795223,100.0695293,Mellow Mountain (closed)
22.2853201,114.0381817,Les Copains D'Abord
3.1544909,101.6229601,"Tom, Dick and Harry's"
15.2133443,145.7178312,Bossano Bar
52.2888253,104.2768612,Killfish
11.5536954,104.9235448,Wonderful Night
14.5715758,120.9839876,Hanako
18.8876013,99.0313425,ปันเกย
12.9343861,100.8918027,Legends Pool and Sportsbar
12.8985975,100.8749228,Joke Bar
12.8984079,100.8749675,Candy Loca Bar
12.8985017,100.8749411,The Celtic Tiger
14.8511572,120.2582558,ALLIES BAR / ALLIES PUB & GRILL
14.8511425,120.2617123,Salty Dog Bar
15.1653661,120.574352,Candy
15.1671228,120.5867643,DollHouse
15.1671988,120.5870067,Lolipop
15.1674067,120.5877298,Viking
15.1671829,120.5874892,Voodoo
15.1653494,120.5744039,det･5
14.4065639,120.878316,Padi's Point
15.1667424,120.5861491,Las Vegas
13.7370748,100.5620421,Tilac bar
14.878052,120.2325534,Totoys Videoke Bar
14.8780685,120.2324607,Bossing Videoke Bar
14.5872175,121.0642596,Enjoy Comedy Bar
14.5874813,121.0648025,Fluids
14.5877397,121.0645492,Imperium Sports Bar
14.5877408,121.0644753,The Avids Restobar
18.7841994,98.9971111,Darling Bar
18.7842886,98.9972348,Roo Bar
18.7842583,98.9975998,Ben Cocktail
18.7840961,98.9975297,
18.7840312,98.99786,Zoom Bar
18.7834211,98.9926905,Blue Sky
18.7830693,98.9920508,Scratching
12.2422894,109.1920157,Bamboo
34.6924554,135.1891235,ヘラバラウンジ
34.6930382,135.1891888,Varit
34.6941794,135.190205,チキンジョージ
34.6972162,135.1976949,太陽と虎
34.6985834,135.1989693,スタークラブ
34.6971084,135.2007675,マージービート
34.6971024,135.2007831,バックビート
34.6971059,135.2007745,トップテンクラブ
34.6977686,135.1983447,108
35.4609439,139.5158584,澤屋 まつもと
35.4608673,139.515833,
35.171874,136.932959,The Modern Lovers
17.3244677,99.5692331,ครัว ข้างป้อม
34.66667,135.499304,ONESHOT
34.669198,135.499493,PASSION
34.676631,135.499604,ベルツリー
7.8388941,98.9401479,Sabaidee Bar and Restaurant
17.7253698,100.6707125,Karaoke Bar
22.6204433,120.3002071,炭樵日式串燒居酒屋
7.7864356,98.9845237,Coco Bar
18.806611,98.9576688,Moc Mol
14.4587508,120.9227692,Jer and Jess
12.6297123,101.5553673,
17.0833281,120.9004867,Sagada Pines
10.7518312,106.6743051,Tokyo Club
1.2870358,103.8535374,The Rooftop
9.5704771,100.0818032,Cocktail King
7.5443981,99.0465173,Rasta Bar
9.5664255,100.0620403,Fisherman Reggae Bar
17.8037518,98.3633952,ครัวเอื้องผึ้ง
13.6665015,101.0528762,
13.6663898,101.0524985,
17.7989086,98.3570985,Small Town Bar and Restaurant
35.6815595,139.6279605,BLACKBEAT
12.9259064,100.8721328,Peppermint
12.9264505,100.8737719,Beach Club
31.9337979,118.8122553,1912 Baijiahu
39.9920186,116.3305915,Global Club
39.9912016,116.3306366,Lush
39.9903283,116.3308861,Steps
39.9901639,116.3309612,La Bamba
39.9904886,116.3308431,Sensation Club
39.9900981,116.3309504,Propaganda Club
18.7901636,99.0038722,Sip Bar
19.9436451,99.6720683,Bamboo Bar
8.6912815,98.2399929,Lek Bar
8.6767578,98.2419762,Sunset
7.5695383,99.0339347,Monkey Bar
7.5754364,99.0330797,Mushroom Bar
7.5631709,99.0362274,Klapa Klum Bar
7.5614985,99.0375786,Krit Friendly Bar
7.5352546,99.0497852,Majestic Bar
7.5271845,99.0525739,The Cave
1.1414848,104.0049806,Princess Massage
34.9879427,135.7583666,London Pub
13.959656,121.6168141,West Central Park Bar
18.7933855,99.1043519,มาลัย
12.4841109,106.0178331,Bamboo Rooftop Bar
12.4949272,106.0157069,Happy Night
12.4983803,106.0522577,So Cool Club
14.8047358,106.8354546,Milano
14.4438072,120.995754,Suzie Wong
16.46861,107.5950123,Sunlight
34.2162497,108.9616812,
34.2166584,108.9616464,
34.217342,108.9616654,
35.0059434,135.7685387,枡
37.4965727,139.9252585,和風スナック英
37.4965413,139.9252531,お酒の店京子
37.4965014,139.9251525,小料理　ことぶき
37.4954941,139.9310667,泡沫
37.496403,139.9329816,コージー
37.4958039,139.9327891,Bar BOKU
37.495372,139.93271,クラック
32.5273164,117.6763233,古城静吧
32.5276662,117.6762369,麦田清吧
9.4235188,100.0148008,Cool Bar
10.6936922,122.5677252,PARK-INN
37.496278,139.932127,Shot Bar Cask
37.4962523,139.9322002,Bar Octave オクターブ
37.4966206,139.9325324,Shot Bar SPEAK EASY
37.4947245,139.9323366,ノースランド
37.4950608,139.9308318,スナック 香おる
10.316443,119.34354,Bottega Resto & Disco Bar
14.868184,120.2352098,The Gutter
14.8680747,120.2351547,KingAlbert Disco Bar and Rest Hotel
22.559266,113.8746272,40°
14.3115591,120.9161206,Franks Bar and Grill
10.3431801,107.0952174,The Beach Bar
18.7977636,98.9942933,บางแสน 2
14.4230859,121.0263393,Draft
18.7948504,98.9698716,Cafe 17
18.7813086,98.9988059,ร้านนวด
18.7831925,98.9984228,@ The Bar
18.7826442,98.9984751,The Bank Restaurant
18.7823051,98.9984092,The Garden Bar
18.785661,98.999219,C.U. Bar
34.2107507,108.942692,
34.2107503,108.9427926,
34.2107494,108.9430035,
34.9705369,135.7710171,Okoze
10.605848,103.5212422,Pier Bar
18.8028392,98.9592798,กล่อง
14.6347801,121.0947648,KBG
14.6347392,121.0947862,Street Bar
34.7177547,135.3962333,どんまい
34.7167745,135.3965383,スナック ルビー
41.789388,140.7526138,福福屋
18.7986443,98.9688182,D-fine
11.5604432,104.9301996,Bar.sito
14.635214,121.0696886,Papus
14.6354063,121.0690171,Loading Point
12.8569758,120.753336,
35.0172412,135.7532652,あじ蔵
35.0172598,135.7533343,ホットコーナー
35.0171647,135.7522206,居酒屋 たぬき
35.0172512,135.7525811,花生歩 市原
7.6094518,99.0323643,Koby Bar
35.6485304,139.5428749,BAR HEART BEATS
17.4885611,101.7263119,Loei Saloon
16.7797195,101.2431127,Beer Bars
14.5709906,121.1503201,Tropical Bali Resto Bar
10.808155,106.664381,Vuvuzuela
26.0634337,119.2707719,北纬26度
50.5276576,136.9987363,Пузырек
39.0303135,141.6332911,loop
43.1314179,131.9422127,Эстоль
35.020744,135.751576,ちょこっとBar
27.6719594,85.3152496,crazy dance bar
39.9396295,116.4003866,Guitar Bar
31.9141845,120.2718991,酒吧一条街
7.811243,98.3251167,
40.8886414,107.1336508,碧海云天
39.9392059,116.4085307,Beetle In A Box
26.5256042,106.6987912,
12.9282894,100.8923223,Club 4
12.9335214,100.8920928,Monkey Bar
30.8330288,104.1862048,
39.9423351,116.3990494,Yuewang Bar
39.9423351,116.3990494,Salty Dog
39.9405862,116.3916477,Sea Love
39.9425166,116.3966677,Siif
34.6887511,116.5905979,聚贤阁
34.6998306,116.5863063,兰桂坊酒吧
34.685398,135.49946,smoothie&bar
32.0222862,118.8563565,
31.3760519,120.9595859,要德火锅
19.9144003,99.2087042,
13.2794868,100.9366459,วิมานเพลง
35.6986152,139.647705,Prosper
36.0599322,129.3785183,Tilt Bar N Grill
14.5527572,120.5962534,IDOL
10.1327619,124.8449566,Seawall
32.1088815,118.8077895,优力锋KTV
33.0001092,119.0164558,様音乐餐厅
9.743764,98.397466,Gypsy Bar
34.9728574,138.3852997,Bar OZ.
3.1480694,101.7071116,The Rabbit Hole
35.6991266,139.7020617,
34.8879724,135.7819532,LiKEiT
14.8698559,120.2353319,Subic City Club
14.8694854,120.23534,Gate Way;Chiquitta Bar
14.8697244,120.2353459,4j's Roses Vidoke Bar
14.8696525,120.2353406,RIO KTN Vidoke Bar
14.8693923,120.2353097,Big Honey Club
14.8683109,120.2350428,Georgetown Bar
14.8681379,120.2348809,Cassandra Videoke Bar;Jellybin Bakery
14.868241,120.2349693,Lucky g Club
14.867892,120.2348597,Griffs Bar
16.8749275,94.3768731,"Fisherman Bar, BOB"
30.6345019,104.058271,马丘比丘咖啡馆
34.7035963,135.4909589,シャングリラ
14.8553137,120.2446814,Curacha Bar
35.707355,139.667166,天
35.399036,139.5315355,スペインバル YUME
36.6444867,138.1874407,景家
9.763321,98.4082411,Hippy Bar
35.5246188,139.6248347,LauLau
10.7215716,122.559928,BARCHOY
12.9411279,100.8906537,Happy Corner Bar
14.1907788,120.5962562,Brisa Bar
37.4948534,139.9313865,WIZARDS
9.745857,98.411708,24 Bar
9.722953,98.393533,South Star
25.0926855,121.4608237,菸灰缸pub
25.0880538,121.4556518,亞烈航斯pub
35.6990344,139.4150446,Seed
10.7046165,122.550633,Aura Iloilo
4.7318445,96.7937403,Cek Da
23.077705,114.3807294,瑶芳酒吧
35.1694405,136.8783825,椿
25.695512,100.15917,The Phoenix
1.2962505,103.8545669,Mr Punch Rooftop Bar
9.977231,98.5524326,Mark
10.6605181,122.9422374,Offshore
12.9142002,100.8806966,
12.9205821,100.8862552,Asian Nomad Club House
10.1330556,124.839331,avenue bar
18.789734,100.770892,Homestay Chillstyle
35.6248058,139.7177779,Glade hidekyu 五反田
35.3304381,139.3483292,オリーブ
12.9422576,100.88676,Red Light Bar
37.3689802,127.1144318,블루스엘리
36.6397525,136.9527049,cask 食楽酒場
23.018794,113.1043,Lazy Mama's
35.5839592,139.5534492,稜
12.9299443,100.8849487,The Cave
13.908751,100.490703,Chitbeer
12.9310147,100.8862682,Players Lounge
12.9281376,100.8834061,The Naughty Club
12.9280425,100.883495,Garden Beer Bar
49.0974365,105.5524981,Nice bar
34.6970065,135.5003173,Train Bar KODAMA
12.9300652,100.8859119,Mike White's
37.0575864,140.8943043,Sin-e
13.759429,100.497013,Happy bar
12.9300123,100.8859991,Oud Bar
40.0415493,116.4047032,天赐情缘量贩式KTV
14.6402134,121.0338086,Tides
28.420372,117.604909,海阔天空KTV
17.0884879,120.9771339,Victual Resto Bar
26.2150516,127.6838525,SOUND M'S
8.0235524,98.8290895,
18.8024131,98.9790074,Black Door
18.8054259,98.9813732,M One Bar
34.6905929,135.1882988,勝男
28.2054005,112.9696933,
28.2059919,112.9698252,
28.2008324,112.9687722,
28.2003192,112.970515,
30.2991688,120.2702441,Abbey Pub beer shop and bar
15.1140621,105.8004367,XQ Karaoke
34.8180357,138.1323085,ハートランド
14.3014954,120.9537217,Padi's Point
10.3108397,123.89865,Cubana Restaurant Lounge Bar Club
35.67145,139.7618258,宮下電気
35.4612432,135.3896755,居酒屋　美人韓
35.574117,139.653941,MUSE
6.9076201,122.0784862,GC Hotel
40.8143566,111.6724554,九点半俱乐部
12.9264073,100.8824518,Pattaya Nordic Bar
35.1196111,135.9163563,大黒天
35.57273,139.659444,Shotbar Moga
35.6340699,139.5334063,ふなや
12.9283923,100.8822839,Korando's Bar
12.9286221,100.8837105,Mai Lu Si Bar
14.9003127,120.2349823,Djmj Karaoke And Resto Bar
35.7371346,139.7332742,串焼きもん家
35.738189,139.7340701,赤い扉
35.3412006,139.3346557,まき野
35.3411503,139.3347335,ジジ&ババ
35.0050235,135.7702763,A-Bar
6.9545281,122.0717549,Outpost
3.1487156,101.7083337,No Black Tie
33.5897995,130.4232183,Henry Poole Pub
8.0550523,98.916345,Jungle Bar Krabi
9.7857611,122.3931517,Sugar Rocks Music Bar - SMB
9.7850681,122.393657,Langub Videoke Beach Resort
12.9271047,100.9319016,Moon Light
14.5444869,121.0168794,Europha Dance Bar
22.9942268,120.2106461,萬昌起義
35.9080957,139.6277346,Belgian Beer Bar BARBEE'S
30.5815971,114.3669748,bus
35.6576915,139.3411195,串かつ でんがな
35.664224,139.7452933,串特急
22.5407034,114.0910111,Hawa Cafe
35.579837,139.663458,THE PINT
10.3112724,123.8991737,Erik D' Red Bar
10.3113098,123.8993089,Vikings bar
10.3112925,123.8992584,B-G's Bar
10.3112856,123.8990611,Planet X
10.3112476,123.8988775,Sisters
10.3112213,123.8987702,Twisted Sisters
10.3112846,123.8992129,The Bar Next Door
10.3116133,123.8988852,Love city bar
12.9255308,100.871177,Rolling Live Bar 6
12.9257132,100.8715134,i Bar
12.9259524,100.8724457,Google Show
12.9260979,100.873195,P.72
12.9271664,100.8743505,The Stones House
35.6635077,139.7451684,ブラッセルズ
10.3166707,123.9011823,Hanimizuki Japanes Lounge Bar
35.4298475,139.6101598,スナック まどか
35.4300499,139.6112561,濱倶楽部
35.54476,139.4462821,Hub
35.5325864,139.4215361,ニューフレンド
35.4279514,139.6059186,BEZ RECORD
35.4307337,139.6104792,リヨン
35.4296722,139.6090347,スナック 風船
34.8063086,135.4719973,SOSH SQUARE
22.9922192,120.1996703,雙全紅茶
34.68065,135.546974,八剣伝
14.7201175,121.0627681,Vicentes Bar and Grill
35.564451,139.655179,串カツ　田中
10.3117537,123.8987494,All Stars Sports Bar
10.3116059,123.8987709,Dimples
10.3116165,123.8989962,Papillon
15.1672177,120.5883018,Bamboo
15.1671625,120.5866619,Centauro
15.1671345,120.5869165,Gecko's
15.1673733,120.5873191,Monsoon
15.1673633,120.5871775,Lancelot
15.1673971,120.5875908,Champagne
15.167151,120.5870945,La Bamba
15.1672136,120.5871502,Rhapsody
15.1667643,120.5863869,Body Shop
15.1670144,120.5859122,Angel Witch
15.1668219,120.5866262,Tropix
15.1666955,120.5850165,Tourist
15.1668539,120.5865094,Agsaya
15.1667529,120.5851614,Camelot
15.1666511,120.5849684,Midnight Cruiser
15.1661568,120.5874074,Black Pearl
15.1667607,120.5852544,Brown Sugar
15.1655599,120.5733707,Matrix Brawn
15.1654861,120.5739246,Drill Shack
15.1656129,120.5730945,Ice Bar
15.1656239,120.5730281,Nasty Duck
15.1655003,120.5737918,Garfield's Last Stand
15.1656647,120.572831,Midnight Rock
15.1654732,120.5740292,Perimeter
15.1659197,120.5708455,Honey Ko's
15.1658245,120.5715485,Bj's
15.1656815,120.5727297,Happy Rock
15.1665669,120.5663823,Bulabog Hosto & Comedy Bar
15.1664867,120.5643357,Roadies
15.1664815,120.56427,Lost In Asia
15.1665125,120.5645128,Saikai
15.1665023,120.5643907,After School
15.166361,120.5632172,Roadside Deli & Liqour Shop
15.1656892,120.5600723,R and B Music
15.1652842,120.5592971,Star Gate
15.1601,120.5562985,The Cold Drop Bar & Grill
15.1587314,120.5815802,Sienpost Grill
15.1599122,120.5821582,Bake N' Brew
15.1598024,120.582012,Asti
15.1601268,120.5827161,Jelyzza Grill
15.1603009,120.5924524,Bruno and Diego Bar
34.692414,135.697631,SHILVER
34.6917807,135.6965851,bar BEAR
24.8753396,102.8456952,
35.423526,139.601265,Le message
35.42373,139.601356,BAR CAROU
35.426757,139.603659,デュエットハウス くに
10.3104624,123.8995681,Kanpai KTV&Lounge
35.6713748,139.7170283,HUB
31.0378372,121.454732,E-TBar
35.2872452,136.7722766,スナック　シルバースプーン
12.9455565,100.8872061,Oh La La
2.2001181,102.2477579,Barlacca
2.1999762,102.2477934,Bonjor
22.2965486,114.0161505,Hemingway's
16.806487,96.1554618,The Lab
30.2751048,120.1206158,Burton's
2.1968005,102.2461713,Ringo Classic & Antiques
2.1963201,102.2459912,Exodus Lounge
35.6593466,139.6944316,BASE
35.6598598,139.6952879,Bloom!
35.6598446,139.6952889,mr kanso
35.170326,136.9057615,ファーストヒル
11.2458898,125.003236,Club Diplomat
11.2419634,125.0024035,La Fideral Kusin and Grill
12.9276261,100.8761496,Boyz Boyz Boyz
9.31034,123.3084072,Whatever
9.3103017,123.3088436,KTV Family Bar
2.1956469,102.2497489,Parrot Bar
2.1960634,102.2499872,E.S. Travelers Port
36.0836253,140.0838787,Matt's Bar
36.2332747,117.1101972,
13.7448048,100.5348739,Bar @ Siam Square
13.7477105,100.5386241,Red Sky
13.7475173,100.526935,The Roof
35.4649036,139.6118431,SeiryuBou
2.1933731,102.2467493,Rio
35.6651482,139.712896,Origami
39.934802,116.4488399,Terrazza Martini
35.8042964,139.1938609,きき酒処
34.6983186,135.5126165,cafebar Mosh
23.3788266,85.3239575,wine shop
43.1303401,131.9012998,Tokyo
35.5802506,139.6631546,爆弾
35.5801976,139.6631557,ダービーⅢ
35.5801656,139.6631505,白い部屋
35.563724,139.6551737,夕菜
35.5637742,139.6551804,シフク
14.8860152,120.2242709,Ktv Bar
14.8862924,120.2243995,Queen of Paradise Bar
16.796529,96.1312524,Cocoon Rooftop Bar
14.5269293,120.9970378,Music Icon Videoke Bar
14.5267371,120.9969949,1925 Music Bar
14.5265502,120.9969681,GoGo Music Lounge
14.5273121,120.9968524,LCDC Videoke Bar
16.7693048,96.1651897,Union Bar and Grill
16.7837386,96.1553862,Fat Man
16.8047831,96.1537159,VIsta 시샤
16.8470551,96.1524816,DJ Bar
16.8259298,96.147272,BME
16.8220191,96.1548688,Space
16.8178745,96.1540168,Bar One
16.817848,96.15325,Ginki Kid
16.8214514,96.1472193,GVI
39.9141535,116.3852618,什么酒吧
22.6852403,120.2892302,新麗華小吃卡拉ＯＫ
22.6853375,120.2891021,姐妹練歌場
35.6639381,139.8706572,LUMBER　HOUSE
35.1633231,136.8965818,lens cafe
14.4333985,121.0129872,Star Wars Disco
35.894044,140.4933305,我夜雅家
22.627122,120.3133961,Music Bar
14.8687817,120.235165,Cybrel Bar
10.6740704,124.800634,
50.353933,106.451154,Наш Бар
50.5448859,136.9647317,Texas
20.2428144,85.7861129,dumuduma bar
43.0938868,131.8968017,Каравелла
22.1813256,95.0602349,HtarWaRa Toddy Bar
22.1799682,95.0599909,Soe Gyi Toddy Bar
22.179894,95.0604266,Htan Taw Yeik Toddy Bar
35.6504255,139.4485001,ハプニングバー リアリティー 聖蹟桜ヶ丘
6.7268983,125.3538072,Jekoy's Inn and Restobar
35.430906,139.609272,スナック オアシス
35.42756,139.603584,ラウンジ 蘭
35.429087,139.60656,カラオケ 南南
16.8260183,96.1471274,Isola Bar
14.8691376,120.2352686,Juniethel Bar
14.867972,120.2349197,Cafe and Resto Bar
14.8679298,120.2348759,Anzacs Bar
35.425417,139.603008,Jazz Live & Session Live House J&B
35.425688,139.60323,スナック フレンチ
35.42593,139.60348,BAR &DINING REX
35.9091967,139.624682,BAR Glace
16.8182459,96.18464,101 sport bar
35.4748389,139.4623088,アンティークバー海月亭
34.694464,135.190057,にっころや
38.0501839,140.1678589,スナック白龍
34.6936918,135.1895926,ヘブンズドア ジョジョBar
35.7038873,139.9868816,Zaku
35.7027728,139.9883273,Wel
35.7020251,139.9869557,よしの
35.701885,139.987213,たんぽぽ
35.7044662,139.9855506,Bar Tribe
33.279332,103.9310955,
38.7172547,141.5210853,佐藤酒店
18.7976188,98.9751176,Soho
38.9109985,141.5557688,アミーゴ
13.7498252,100.510211,Hlung Raak Bar (First House)
35.7500702,140.0318133,田なべ
35.7097143,139.980154,おかざき
35.7108295,139.979635,はなの舞
35.7100634,139.9798384,ほまれ
35.4402504,139.6241357,Night Fire
35.4430773,139.6265052,らいむらいと
35.4403293,139.6242215,JOINT
35.4402666,139.6241547,BACARDI
35.4378926,139.6178507,FREE BIRDS
39.3109053,140.563244,cosicosi bar
25.6983848,100.1669349,念长歌舍
25.696832,100.1626466,Coo Coo
13.9388493,121.6132451,GZ Bar and Resto
32.8294734,129.8479309,Horo Horo
12.8790533,100.8904876,Monkey Drinks
25.6966578,100.16245,九月
18.7427993,98.9607531,
35.616742,140.192544,暖和
34.7279067,135.2766365,Caffe e Bar Al　Mercato
32.0652184,118.8221029,平台
32.0686642,118.8313941,中马腰
32.060163,118.8185516,
7.9885765,98.2891798,Bliss Beach Club
14.5714225,120.9840589,KTV CLANNEL
11.0082404,124.6071543,Asteroid Bar & KTV
14.8515377,120.2612961,Buccaneer
9.34821,123.28657,VIRGO KTV and dancing hall
9.33655,123.29211,Fantasy
9.3318995,123.2943409,Might Night Blue
14.851541,120.2612027,Rum Jungle
35.4374953,139.622019,パブ じぶんかって
35.436226,139.6175494,snack むーんばりー
1.3055063,103.8228494,New rasa Singapura
22.5380844,114.0611141,
35.459034,139.6062823,
35.4562097,139.6079378,フォルム ながお
35.456618,139.6069984,PUB　ボルト
35.7810448,139.7203332,Teenage Blue
4.8083033,103.6791009,
35.4709128,139.6272351,And Bar
42.9061702,131.3837741,
33.7339002,135.3817123,Cresent
13.3588112,103.8540919,Top Banana Bar
14.8514262,120.8187025,Burger Bar
14.8745673,120.7975739,Marina’s Cafe & Retobar
14.8748819,120.798,Redmix Restobar
35.5093153,139.6307051,リンドバーグ
13.7332291,100.5650639,Buddy's
13.7326327,100.5650484,Honey House Cafe & Restaurant
51.8317875,85.7447333,Оверкиль
10.7214277,122.5597856,Bar Choy
11.8338278,102.4616982,No Name Bar
35.4231177,139.6011658,カラオケ ダンス Helen
35.4231706,139.6013821,スナック モーリ
39.9324927,116.415556,Camera Stylo
48.9648676,140.2953378,BEERLOGA
6.9505595,126.2174843,Ciangi Bar
25.6951098,100.1597588,来去
11.574791,104.9266443,One Zero Four
51.9065379,85.8561279,"Бар, 1 этаж"
51.9048734,85.8566265,Бар Мохито
43.0921326,131.9728952,Bookmaker hall
35.4531596,139.6025123,Cafe & Bar ESMERALDA
35.4535884,139.6025991,イートリップ (eatrip)
35.4394484,139.6134887,スナック 和
35.4456599,139.5990451,COTTON CLUB
42.548475,140.76369,
42.548626,140.76389,ゴン
42.550055,140.76344,スナックゆめじ
16.41505,120.6115482,Hunter's Bar
42.6953758,143.1304686,
42.6503376,143.186761,オアフ
42.696008,143.13255,スナックあおい
42.6492662,143.1879005,スナックびざん
42.6964569,143.1314859,ナイトプラザジュン
35.4659283,139.5300957,Pub Yuki
35.4659567,139.5300876,GRACE
13.7260564,100.5258029,Scarlett Wine Bar and Restaurant
13.7235648,100.51428,The Bamboo Bar
36.5601515,136.6529578,
36.5597637,136.6524026,ロンドベル/Rond Bell
13.7383421,100.5886342,Tuba
35.4658077,139.5304965,糸ぐるま
7.0696949,125.6071896,SoundBox
11.5729286,104.9222845,Golden Vine
13.7546204,100.4865393,ตลิ่งบาร์
13.7287786,100.5113027,Three Sixty Lounge
43.197896,141.0039,小樽運河食堂
26.8742886,100.233329,
3.1511437,101.7099435,Heli Lounge
42.16185,142.77437,かるた
14.8491941,120.8253307,Ton's Venue
36.5609382,136.6519397,Hakase
36.5611301,136.6518486,Susun
36.5609059,136.6519827,OLIBAR
36.5608285,136.6519424,ひめり
36.560768,136.6521573,SPUMONI
36.5608198,136.6521865,BANANA CHIPS
36.5613196,136.6528195,宴の園
36.5612032,136.652723,Shotbar Benz
36.5614467,136.652503,BAR Garcia
36.5614961,136.6524065,VOO DOO
38.262042,140.86839,St Elmo's bar
38.262016,140.87981,ハブ
39.0353769,125.784172,청류3식당
39.0196609,125.7175469,보통강려관 은하수주점
39.0179308,125.7664989,Taedonggang No. 3
39.1749953,127.429345,
39.0084732,125.7368132,고려생맥주
39.048645,125.7568335,Moranbong Sauna Bar
39.0400618,125.749836,Plastic bag Bar
38.993984,125.8096462,Taedonggang Beer Factory Bar
39.039426,125.7499331,Terrace Bar
39.0074228,125.7424892,
38.9985821,125.7518762,양각도차집
12.6576192,99.9562615,Lobby Lounge & Bar
12.6574345,99.9569826,Sala Thip Poolside Terrace
35.8241184,139.9144171,Silky
41.295193,141.21278,びあぱーくむつ
40.827532,140.74592,Crazyhorse saloon
35.7448453,139.9977425,バレンタイン
23.3520765,120.4151121,
35.452316,139.5565435,パブスナック かすみ草
12.928522,100.8853787,The Place 2 Bee
12.9279937,100.8864354,Bar Club La Poste
6.6984493,121.9687864,Sheeba BAR and Resto
18.6329808,120.7994406,Kingfisher Beach Bar
22.1968486,113.5553971,富豪吧 Kingpin Bar
22.197251,113.5557102,運財閣 Good Luck Corner
22.1969119,113.5536747,騎士吧
0.5491187,101.4371405,Karaoke Harmony
1.2913926,103.8408806,Harry’s @ Pier Robertson
0.4828831,101.4552321,sudirman club
16.8796482,96.1326769,Turbo
35.452773,139.609832,Grill & Bar 颯
36.3725781,140.474254,Konnai
36.3724501,140.4741655,T's Bar
36.3721532,140.4738564,OWLS
36.3721375,140.4738819,マン・タラーク
36.3721656,140.4736619,スナック オリーブ
36.3723095,140.4738297,夜の虫
36.3724326,140.4739692,UNBALANCE
39.4181006,141.0132603,アイアイ
39.4180604,141.0130978,将軍
42.6464,140.83237,グーテンターク
42.565266,140.82416,ベニ
31.3002341,120.6907203,
16.4100281,120.5915572,Cactus Bar
16.4098254,120.5914104,18 B.C. Music Lounge
12.6254625,101.4319525,E-S@N-Bar
12.6249478,101.4326123,The Beatles Bar Resto
12.6280814,101.4397007,Takkatan Louis
35.1758615,128.8063321,청춘129 비어 (Chung chun 129 Beer)
35.176197,128.8067948,청하통술 (Chung ha Bamboo liquor)
35.1764658,128.8072717,The Beer
35.1766603,128.8076886,700 Beer
35.1770823,128.8071092,오야지 (IZAKAYA) (Oyasi)
12.8989147,100.8670662,Bamboo's Bar
31.2374036,121.4854749,Choir Wine Bar and Kitchen
43.7741539,142.3626427,RAM HEAD
12.9341867,100.8879564,Cindy's
11.2158962,123.1107829,
11.2158571,123.1108347,
35.6866105,139.7418941,bapapa
26.0926149,119.2847407,西区66酒吧
35.7014195,139.9821949,Noi
35.7043919,139.9824245,Rizzo
35.7043889,139.9823545,
35.711481,139.97303,
35.723755,139.98394,
35.701307,139.97798,ぽんぽこ亭
35.7055512,139.9818053,ものおき小屋
35.7097944,139.9803062,ザ・キッチン
35.721382,139.97971,スナックピエロ
35.705618,139.9818082,マミィ
35.7100708,139.9798169,ミニラウンジ ツインズ
35.706338,139.97219,信濃路
35.7230078,139.9833776,和み
35.716615,139.97572,居酒屋 川せん
35.7062361,139.9725568,居酒屋あき
35.7043809,139.9822845,桜
35.637762,140.09154,こころ
35.614769,140.0996,ブトン
35.688837,139.99515,居酒屋村さ来
21.1929303,94.8991098,HTI
35.7066508,139.9818109,Flamingo Café
35.1699894,136.8752143,NUDE
34.7048774,137.7310245,BAR MAR
14.5329016,121.0709887,Calye Sports Bar
35.6591145,139.6675995,comp.
26.668539,119.516036,后海酒吧
35.876112,139.84421,Misty
35.7126036,139.633897,旨肉酒場 凛
35.702332,139.98348,FC Vinvino
35.7066958,139.9818251,スター
35.6998019,139.9804773,スナックふくちゃん
35.7026079,139.9833516,フォーエバー
33.2361951,131.6094035,器彩
36.5586757,139.9011783,ハチトラ
35.6907993,139.6522838,ふるさと
36.6513742,138.186211,BARハックルベリー
35.4094695,139.5971403,グランドゥーカ
22.984306,120.1918163,簡單歡唱會館
39.9400363,116.4111957,Lark Brewpub
14.851502,120.8184105,Borek KTV
22.7893862,113.2866271,
38.4314843,141.3079869,酒房 ふ
47.9205603,106.9203957,iloft night club
18.6306385,98.8968566,Buck Bar
35.697749,139.774362,村役場
37.4388618,126.4608577,The Jet Lagged Lizard
34.7328569,135.565457,レストランBar ゆう
25.1193447,121.5305062,Wicked Wolfpack
25.012465,121.536194,軍火庫
28.4419496,98.8763609,天堂鸟酒吧
35.6576244,139.7952751,El Puerto
47.9240337,106.983833,Remix bar
35.8592423,139.9753042,Jazz & Wine Bar JAVIN
35.659054,139.696259,日本酒バル
35.6963767,139.7608734,Gracia
34.7286474,135.5703731,みなよ
34.7295582,135.5701977,紫苑
43.0937966,131.9509595,Анталия
35.728738,139.5443141,Rui
35.4631305,133.06326,卑弥呼
35.4631305,133.0632224,暖家
35.4631284,133.0633002,ファン倶楽部
35.3852004,139.6202789,月兎
47.852061,134.9600587,Джулия
34.9732859,138.3841714,Bronx cheer
34.9733006,138.3841388,三田菜
34.9733749,138.3839046,Stay Gold
34.97346,138.383948,Piano Bar Duke
34.974479,138.383698,CAFEE AND BAR Ks
34.973754,138.383004,のほほん
34.97382,138.382095,Never Rand
34.9733036,138.3829724,喰海
34.972933,138.383764,ROUTE52
34.97342,138.384348,U.C
34.9735605,138.3852372,Music Bal S.O.A
34.9733754,138.3852297,momoya
35.745148,140.00125,だるまさん
35.695117,139.79358,とりよし
35.708612,139.98509,ゆたか
35.69794,139.98012,スナックのんき
35.6991269,139.9800682,ソープランドミネ
35.695145,139.79456,ニュー鳥正
35.699687,139.98027,ホッピーハウス
35.702314,139.983,居酒屋ふるさと
35.6971084,139.8258447,軍鶏農場
12.8374049,100.9062598,
34.707034,135.5041917,天人Bar 朱夏
34.7071962,135.5049023,カフェバー巣バコ
12.9008994,100.8695216,DK Bar
35.8455039,139.5378976,魚民
35.3861431,139.6176246,スナック喫茶 美月
35.3860946,139.6176024,カラオケ居酒屋 ありぜ
12.9353453,100.8881542,Big Daddy Bar
9.5485428,123.7726535,Bugsay Bar
9.5505328,123.7722706,Winners Alona Sport Bar
9.5506387,123.772034,
34.933434,135.799543,FUWARI
33.7328171,135.3830108,サフィーロ（スナック）
33.7327201,135.3829974,Ｋ２ＢＡＲ
19.3907838,98.9299578,Bamboo Mountain Coffee House - closed
14.7680182,121.0821986,Babes KTV Bar
14.7679844,121.082224,Betty's KTV Bar
16.779764,101.2429631,La-mai Pub
35.7001762,139.4150649,JASSE JAMES
14.6771554,121.085297,Sessions Bar
14.6771191,121.0854941,Infusion
14.6771489,121.0856081,Blitz Bar
14.4225897,121.0339311,Sapphire Lounge
13.9596286,122.2918641,Punta Baluerte Resto Bar
12.9276814,100.8833261,Monbo Bar
12.9278824,100.8830903,The Hideaway
34.818835,135.378824,居酒屋寛や
39.9820796,116.3276087,潜渊
37.4931406,127.0112516,스윙타임
35.6814922,139.6274126,またたび家
22.3049799,114.1731905,Rob's old house
12.9285412,100.88534,Monkey Club 1
12.9281737,100.8860619,Ned Kelly Bar
12.9286532,100.8851142,Today Bar
12.9280574,100.8863032,Blue Heeler
12.9278749,100.8865998,Cheeky Girl Bar
12.9280252,100.88637,Le Private
10.6096296,103.5318069,Tik-Tik
34.740644,135.497141,a2
12.9256541,100.8806505,Phantom
19.3572672,98.4440614,Blah Blah
12.9316811,100.8866338,Mates Sports Bar
35.7084651,139.9723313,カラオケ居酒屋1043
35.7767742,139.9914717,くつろぎ居酒屋
35.77019,139.98702,カンパイ
35.6918741,139.5653485,ONE SHOT BAR
16.8138401,100.2597218,Calito
32.1685205,120.0314585,莉莉玛莲
37.4883223,126.9070361,고고스윙빠
10.3197482,123.9033309,Pool Bar @ Mandarin Plaza Hotel
10.3388981,123.9278506,Club Hanabi KTV
10.3380156,123.9293302,Lady Mysterious
12.9280581,100.8858856,Mamee Coffee
19.8927681,102.1384485,Opera House Restaurant
35.3841754,139.6180377,立呑み 串揚げ 龍馬
35.3841024,139.6180751,Maduro
10.6080074,104.1791545,Nasha 1
22.1899299,113.558135,天一酒廊 Sky Lounge
10.6099039,103.5223403,Monkey Republic
18.782574,99.00232,Bamboo Bar
7.8938416,98.2968135,
7.895217,98.2974909,
7.8952569,98.2973067,
7.8939249,98.2968369,
7.89435,98.2969569,
7.8932623,98.2981801,Rock Hard
7.8933287,98.2979768,KOH Bamboo
7.8937071,98.2967051,
7.8937487,98.2967958,
7.8933444,98.2978661,Moulin Rouge
7.8933858,98.2977503,Illuzion Phuket
7.8940534,98.2968876,
7.8941863,98.2969219,
18.8020932,98.9670862,Roof Bar
18.8020221,98.967552,Raya Cafe
18.802492,98.9668089,Your Bar
18.8020427,98.96719,Buckets
18.8022014,98.9668941,Myst
37.558573,126.9232365,턴
12.919883,100.9140418,Mermaid Bar
12.9077523,100.9111942,Mini Bar
12.9070734,100.9198751,Happy Moon's Bar
12.9298312,100.8840912,White Room
14.5221813,120.980441,Waterside Restobar
12.9267575,100.8786019,Black and White Bar
19.3576667,98.4442521,Yellow Sun Bar
19.3572162,98.4440326,Boom Bar
19.356893,98.4439883,Mountain Bar
35.664945,139.730805,A971
12.9279375,100.8761694,Cheers Bar
12.9259537,100.8815741,Farang Pub
12.9276853,100.8865434,The Freeze
14.40074,120.8615376,woodrats
37.4045057,140.3601984,フォークソングBAR PENNY LANE
37.4027994,140.361687,百足屋
25.0565684,121.536526,TABOO
12.9329086,100.8895261,Lucky House
12.9310886,100.8898264,Viking Corner Bar
35.4959694,134.2280215,お気楽ハット Casa
12.931252,100.8864157,Fire & Ice
25.0499337,121.5271519,L-World
12.9307919,100.8811266,The 145 2
12.9309066,100.8806748,The 145
35.4985326,134.2306238,元町倶楽部 BEER & DINING
12.9292376,100.9476303,Bennets
12.9300767,100.9655103,The Pride
12.9312662,100.9660398,777 Nikky Bar
38.4631743,105.1547029,
12.882826,100.8967494,Thai Lounge
14.5555729,121.0453011,Garage 88
0.4429069,101.4435967,bar
35.0035856,135.7761297,Bar Gion
18.7880452,100.7786145,108 Cafe Bar
18.7882126,100.7789526,Club 360
35.661686,139.732984,My.bar
32.0003519,120.8682128,
32.0003359,120.8717584,
13.7342397,100.583048,HOBS
13.7324895,100.5822447,Wine Republic
13.7322942,100.5828233,Bombay Blues
13.7334408,100.5812873,Fat Gut'z
35.4433971,139.6488341,491 House
35.7287549,139.5386019,オベリベリ
10.777243,106.7041882,Blanchy's Tash
35.6765978,139.737742,フーターズ
35.6769737,139.7375784,よなよな BEER WORKS
35.661471,139.665929,BUTTER CUP
35.606578,139.71223,J's Bar
35.661955,139.669943,marusan&wacca
12.9353699,100.8847736,Harley Bar
12.9368765,100.8834796,Bier Stuble
23.3684646,103.3810329,观保大酒店
13.7452072,100.5390491,Heaven
12.8917926,100.8738288,Pingpong
12.920096,100.8754935,Twin Oasis
14.5536969,121.0510857,The Perfect Pint
34.743404,137.737362,燗来鳥
25.0458819,121.5039948,王老先生有塊地單車酒吧
43.8675552,125.29118,爆米花KTV
17.4067277,102.8018274,Chill Out Bar
35.7021585,139.580664,
13.7323387,100.5826542,Bangkok Bar
13.7345511,100.5829866,Mellow
13.7343762,100.5830879,She Bar
14.6028484,121.0516509,WMR Family KTV
10.792289,106.688214,Yes cafe
36.5573535,136.6555927,オタクバーK3
13.734141,100.5797375,Tribeca
12.9018934,100.868988,? Bar
12.9020071,100.8691549,BC Bar
12.9016576,100.8690857,L & N Bar
12.901474,100.8688307,Sun Bar
12.9019444,100.8690628,Two Faces
12.9016158,100.868591,Zen Bar
36.3815935,140.4578008,MANILA GALS
14.0955207,120.9367216,Rue Bourbon Bar & Restaurant
36.3805725,140.4571441,スナック88
36.294286,139.936714,千年の宴
12.7261265,101.0496198,Candy Bar
12.7260794,101.049644,One Club
