lat,lon,name
14.5532842,120.995001,Kamakura Japanese Restaurant
14.5326796,120.9936211,Max's
14.5230946,121.0005663,Shakey's
14.5264633,120.999684,Conrad's Cafe and Grill
14.5309775,120.9936733,Chowking
12.9257786,123.5749287,Baracuda Cocktails and Seafood
13.1561535,123.7464495,La Roca Suites & Restaurant
12.9123076,123.5930521,Lola Ermas
11.7158333,122.3539322,Ramboys Lechon and Restaurant
14.5778488,120.9789199,Emerald Garden
14.5530715,120.980442,Spiral
13.7835664,104.5407028,
3.0510745,101.5386002,Seri Bunga
3.0578013,101.541001,Restoran Panmour Villa
3.056312,101.5415622,Ali's Corner
3.0564068,101.5418317,Pizza Hut
3.0556564,101.5420771,Khulafa
3.0552762,101.5422039,Yusram Thai Cuisine
3.0552467,101.5421079,
18.3922734,99.2157026,
2.1450411,102.7666092,
2.1452516,102.7668409,
2.1474166,102.7699911,Ikan Bakar
2.0464909,102.5663786,Restoran Wah San (Mee Bandung Abu Bakar Hanifah)
2.9899834,101.7909561,Pizza Hut
2.9759903,101.7504893,Soho Seafood
2.975568,101.7504614,Rimba Klasik
14.5539473,121.0479247,Phò Bac
14.5539752,121.048378,Zhu
14.5511979,121.0498801,Pancake House
2.9759735,101.7257449,Beryani Gam Putrajaya
18.9390311,99.1327392,ท่าเรือลุงเจริญ
14.5523564,121.0256573,Johnny B. Good
14.5656627,121.0234328,L' Incontro
14.5517598,121.0204948,Chihuahua
14.5751376,120.9846643,Chicken Bacolod
14.4832037,121.0352139,Cafe Nemoso
14.6475594,121.0646044,Likha Diwa
14.5846983,121.0607068,Racks
14.5506953,121.0498979,Texas Roadhouse Grill
14.80789,121.00389,Mang Pule's
14.5646374,121.0363767,Pho 24
14.640845,121.0301128,Dulceline
14.5510574,121.0503647,Pound by Todd English
14.5105575,120.999087,Chef Robert's Table
14.5510342,121.050637,TGI Friday's
14.5642719,121.0364111,Kaya
14.5721327,121.0135479,Greenery Kitchen
14.4946886,120.9916779,Dampa
14.5625212,121.011632,Via Mare
14.5638791,121.0295241,Garden Restaurant
14.5830977,121.0775533,House of Mini's
14.5534904,121.0140029,Shinjuku
14.5356583,120.9933392,Kenny Rogers Roasters
14.6297352,121.0320469,Zuchini
14.5521165,121.0200362,Watami
14.581271,121.077011,Ktv
14.5496269,121.0480114,Pasto
14.6861916,121.0901071,Bbq
14.6258141,120.9902475,Mila's Lechon
14.5813,121.0599509,Grill 56
14.5678257,121.0238979,Som's Noodle House
14.5647371,121.0365827,Dencio's
14.5628615,121.010954,Smokeys
14.6347,121.030761,My Steak N Grill
14.6086361,121.0172933,Pizza Hut
14.8155179,120.9501575,Coran Ihaw Ihaw Restaurant
14.57669,120.98439,Max's Chicken
14.5541045,121.0496632,Pizza Hut
14.5363225,120.980081,Highlands Steakhouse
14.5654953,121.0225582,Cafe Caruso
14.5813909,121.0600199,Buds
14.6051287,121.0551509,Choi Garden
14.5644823,121.0017881,New Kamameshi Sushi Bar
14.5507761,121.0193379,Milky Way Café
14.5667632,121.0306251,Yellow Cab Makati Ave
14.5676762,121.0238507,Cucina Reposo
14.563191,121.0139989,Car Snack
14.5517439,121.0206788,Sugi
14.5765,120.984001,Gumbo
14.3315537,120.9387422,Davids Teahaus
14.5610565,121.025514,Elbert's Steak Room
14.8286,121.04319,Victorias Resto
14.6789002,121.0323521,Pizza Hut
14.5498576,121.0521807,Clawdaddy's
14.5672912,121.0221778,Buddy's
14.575611,121.09777,Kiko Suares Restaurant
14.5528261,120.9878532,Marina Seafood Restaurant
14.9646911,120.8997084,La Familia
14.4374344,120.897427,Josephine's
14.555593,121.0251829,Escolta
14.8387702,120.8602307,Eurobake Bake Shop
14.565194,121.0367544,SumoSam
14.4303719,121.0158813,Pizza Hut
14.6129157,121.1531623,Padi's Point
14.5494552,121.0541381,Motto Motto
14.8088054,120.9464603,Sarsa At Inihaw
14.5637638,121.0290172,Next Door
14.5736309,121.062168,Shakey's
14.5625994,121.02831,Paris Delice
14.5497211,121.0484798,Kasbah
14.5011869,120.9974758,Luk Foo Cantonese Kitchen
14.5650528,121.0361536,Brazil Brazil
14.5496102,121.0534476,Hossein's
14.6307342,121.034648,Ryu Ramen & Curry
14.5634593,121.0296695,Filling Station
14.6016421,121.0542874,Petra Restaurant
14.5671605,121.0236445,Rub Ribs Bbq Makati Branch
14.545087,120.9864475,Trinity Restaurant
14.576431,120.98381,Secret Recipe
14.55689,121.013076,Makati Chef Garden Restaurant
14.6436317,121.0270845,Andok's
3.0663746,101.4887152,Bintang Side Walk
3.0657489,101.4902688,Molek
8.6597981,98.2555094,Palm garden restaurant
2.9903423,101.7179422,Kantin
18.5410253,98.5996214,Food & Drinks
19.1743236,99.0319129,
14.5791212,120.9781758,Yellow Cab
3.0017981,101.3731504,Sungai Bagan Seafood
3.0111497,101.3601635,Muara Ikan Bakar Tanjung Harapan
3.0062335,101.3615707,Restoran Sri Muara
13.7477023,100.5345542,Manna
5.8756663,95.2548111,Mama's
2.9935811,101.7870848,Sate Kajang Hj Samuri
3.0620102,101.5575067,Rejab Tomyam
2.8517303,101.7384097,Restoran Hassan
3.0076113,101.5602484,
2.1744318,102.2901445,Ikan Bakar Anjung Muara
2.1743603,102.289239,Ikan Bakar Muara
2.1212905,102.590613,Oasis Bay Restaurant
2.0453836,102.5632723,Cendol
2.4983087,102.8299109,Restoran Hassan
2.518961,102.8079321,
14.4574209,121.0309376,Toho Antigua
2.9717419,101.7509547,Village View
2.9757756,101.7522632,
3.0758177,101.5292602,
3.0757189,101.5293282,Briyani Tambak Johor
3.0717725,101.5179874,Nachos-Nachos
14.6063688,121.1733113,Iskatis
14.6377252,121.0765005,JSEC
14.5816041,121.1800326,Max's
14.5810761,121.1760282,Pizza Hut
14.6368727,121.0784941,E-Bai's (Former Manang's Location)
14.6363242,121.0740419,Shakey's
14.6375188,121.0740845,Kenny Roger's Roasters
14.6164136,121.1425637,The Old Spaghetti House
14.6165216,121.1426496,Grilla
14.6072112,121.1647338,Nayon
14.6446366,121.0811568,
2.6101347,101.6858425,Restoran HM Seri Bagan
2.9739655,101.828671,Restoran Foong Yan Loy
2.9737352,101.8283944,Restoran Ibrahim Maju
2.5096307,102.8157569,Restoran Zubaida
3.044035,101.5539919,Siti Tomyam
2.9996241,101.7884951,Malee Classic II
11.9992214,102.371311,Urai's Place (German-Thai)
3.1764241,101.6993415,Mee Bandung House (Muar)
3.1764224,101.699189,Restoran Haslam
11.64283,92.74656,The Waves
11.6586054,92.7313059,Island Arcade
11.9848843,92.9521467,Mahua
11.6717046,92.7465694,New Light House
3.2035127,101.7365065,Neo Steamboat
3.0757887,101.5501067,Geng's Corner
3.0762194,101.5501687,Restoran Sri TTDI
3.0714623,101.5181799,Nando's
13.7444202,100.5318788,ฮาร์ดร็อค คาเฟ่ กรุงเทพ
3.0867831,101.542066,Pizza Hut
3.1635342,101.6486202,Souled Out
12.9419779,100.8850018,Toscana Trattoria Pizzeria
12.9386303,100.8837535,Star Dice
12.9370621,100.8845625,Chalet Suisse
12.9362504,100.8848683,Olala Restaurant
12.9363881,100.8861613,Savoey Seafood
12.9373445,100.8832989,Pink Lady
12.9372849,100.8831892,Mr. 99
12.9315944,100.8824665,Nongjai Restaurant
12.9318688,100.8822645,DaDa
12.930946,100.8806315,Alborz
12.9310488,100.8805011,Tandoori House
12.9446394,100.8883909,P.I.C. Super Food
12.945923,100.8897269,Fuji
12.946211,100.8896803,MK Restaurants
12.9491711,100.888815,Nongjai 2
12.950961,100.8893441,Gayarang
12.9438073,100.8869817,Full House
12.9439105,100.8874054,PIC Kitchen
12.9455279,100.8878392,Chimaki
12.9461391,100.887768,Sala Thai
12.9469825,100.8868509,Somsakdi's Restaurant
12.9474985,100.8849277,Gullivers
12.9449358,100.8849741,BaBooNa
12.9426826,100.8849191,Dillii Haat
12.9304416,100.879405,Le Petrus
12.9297763,100.8797496,Da Max
12.9346568,100.8831616,Pan Pan
12.9283324,100.8787184,Nam Sing
2.2507801,102.835945,Mee Goreng & Sate
2.1581522,102.78312,Ikan Bakar D'Cuba Rasa
1.8587391,102.9222372,Nasi Baryani Mohd Shah
2.1568628,102.336131,Medan Ikan Bakar Pernu-Umbai
2.1550954,102.3381809,Perkampungan Ikan Bakar Terapung Umbai
2.1596195,102.3169558,Medan Ikan Bakar Telok Mas
1.3259906,103.4429977,Restoran Hj Salleh
12.9278615,100.8762047,Malibu
12.9252424,100.8724981,Marine Seafood
12.9284994,100.8761201,Baywatch Restaurant
12.9271606,100.8741451,Tankay Seafood
12.9267982,100.8736238,King Seafood
12.9424998,100.886604,Han Woo Ri
12.9423292,100.8879387,Samurai Sushi
17.0308463,99.7031545,
2.5081884,102.8210606,Segamat Bakery
2.5087392,102.8213913,Restoran Lembah Beringin
2.5031406,102.8210736,Pizza Hut
3.1767437,101.7030268,Food stalls
3.1809027,101.7063194,Food stalls
12.5769359,122.2685778,Romblon Deli
12.576873,122.2686731,Republika Cafe
13.7281063,100.5331414,Zen
13.7279705,100.5332622,Coyote
13.7271473,100.5341514,Three on Convent
13.7277058,100.5354816,The Papaya
13.7268964,100.5367763,Zanotti
13.7265149,100.5366371,Le Siam
13.7262883,100.5371553,Le Table de Tee
13.7263057,100.5376914,Aubergine
13.7269776,100.5416951,The Front Page
13.7284621,100.5416099,Lumpini Food Court
13.7263293,100.5398514,บิทเทอร์แมน
7.0701426,125.6141092,Chippens Buffet
3.0584709,101.5067781,Restoran RnS D'Corner
14.3111906,121.0722173,Pizza Hut
2.9637618,101.7552787,Hassan Cafe
2.9634706,101.7516671,San Francisco Pizza
2.9916825,101.790393,Restoran Al Sinar
14.0847401,121.1501834,
14.5389847,120.9790804,Hooters
2.7505198,101.4449062,Sri Bayu Seafood
2.1478956,102.6988039,R&R Pagoh (Utara)
14.5510961,121.0263456,Tony Roma's
10.3127392,123.8903028,Yayoy's Grill & Resto Bar
10.3128918,123.8902456,STK ta Bay
15.1206025,105.8094258,
3.327894,99.1582605,"RM Simpang Raya, T. Tinggi"
3.3274741,99.158209,"Restoran India, T. Tinggi"
3.3307138,99.1600602,"RM Saiyo, T. Tinggi"
13.6512144,100.4862942,4x4
14.6002297,120.9842488,Ma Mon Luk
2.0790728,102.5230581,Medan Ikan Bakar Parit Karang
14.5364121,120.9791736,Seafood Island
14.1264269,120.9679027,Moon Garden
18.7915608,98.9966779,New Boomerang
3.2257524,101.3046654,Ikan Bakar Pantai Jeram
15.0305518,120.6751938,Razon's
14.6082709,121.0385089,Mien San Noodle House
14.6082267,121.0386637,Happy Valley Noodle House
13.7585554,100.4959363,Smiths Bar
3.0905732,101.5447787,Restoran Jom Lepak
15.175707,120.5176622,
14.5237259,121.0001701,Airport Juan
15.1817005,120.521854,
15.1814315,120.5432873,Lomi House
3.0510007,101.5387054,Satay Pak Ngah
3.0488793,101.5354341,Restaurant Munawwar
3.045326,101.5176505,Bob's Corner
3.0907313,101.5443763,Ali's Corner
3.0893944,101.5461194,Pelaga Park Cafe
3.0885073,101.5458997,Restoran d'Teratai
3.0894951,101.5454962,Restoran Ketumbar
3.0900607,101.5447714,Restoran Asli Kampung Siam
3.0888355,101.5447893,Restoran Dhiafah
3.0902656,101.5443725,Bamboo Barat Cafe
3.0891126,101.5444008,Restoran A Hassan
3.0901208,101.546527,Restoran Zul Yahya
3.0906006,101.5461455,Al-Rafi Bistro
3.0875513,101.5477347,Restoran Darul Ehsan
3.0875786,101.5465209,Restoran Seri Kampung Pandan
3.0888531,101.5465088,Restoran Bariani Power
3.0877888,101.5443838,Al-Rafi
3.1009569,101.5575826,Jm Bariani
3.0858121,101.5227892,Secret Recipe
2.4982607,102.8300152,Satay Madura
3.0687049,101.5562705,Sya Sya Tomyam
3.0787862,101.5944274,Shun
3.0787835,101.5945589,Food Lodge
3.0787861,101.5947238,Taj Curry House
3.0787902,101.5949156,Bawang Merah
3.0787875,101.5949572,Pizzeria Bella Italia
13.9332034,121.6127424,Hacienda Inn
14.5739583,121.0479192,Pizza Hut
14.5981345,121.0592548,Sambokojin
3.0846772,101.5219612,Domino's Pizza
3.0845104,101.5231288,Pizza Hut
14.0478943,121.5711685,Nawawalang Paraiso
3.061596,101.4721247,Pizza Hut
3.0609582,101.472393,Johnny's
3.0604611,101.4719711,Nando's
3.0603918,101.4718499,OldTown Kopitiam
14.6383663,121.036554,Hot Shot Grill
3.0877709,101.5454778,Restoran Singgahan Rasa
3.0763749,101.5515153,Mr Kaya Kopitiam
14.0680136,121.324959,G See
7.4433936,125.8066411,Pick &Grill BBQ Haus
3.0582562,101.5062185,Restoran Seri Soga
3.0581187,101.5066074,Restoran Berkat
3.0579895,101.5065447,Restoran Mihraz
6.2174258,124.7050641,Punta Isla Lake Resort
3.2035773,101.7365607,Kak Eita Steamboat
10.3184556,123.9059813,Cyma Restuarant
10.3182238,123.905502,Laguna Cafe
10.312742,124.024079,Kaishu Japanese Restuarant
10.3043543,123.9601893,AA's BBQ Restaurant
14.9334356,120.8785112,Bulalo Republic Restaurant
14.943966,120.881894,Nakama Restuarant
14.5980722,121.0593137,"Triple V (Dad's, Kamayan, Saisaki)"
14.5783649,121.0345357,Shakey's
12.9438785,100.8917485,บุหงา
12.9425554,100.8917471,อาอี๋ Thai Buffet Restaurant
12.9401941,100.8907655,เจ๊หนู
1.8140564,103.4756384,Gerai Persegaran
2.4667926,101.8516935,Restoran Mimi Seafood Village
13.7212917,100.5168726,Sirocco
2.2168245,102.1605811,Medan Ikan Bakar Tanjung Kling
2.3039199,102.0779613,Tepi Sungai Seafood
14.3476232,121.0648271,Shakey's
3.3285848,101.2595738,Char Kuey Tiaw & Chendol
13.4898477,144.7831584,Ruby Tuesday
13.4889604,144.7833141,King’s Restaurant
14.5978562,121.0593677,Salt & Pepper
4.1777198,101.2902276,No.1 Hot Dog
3.0994253,101.5906452,western replublic
3.0890741,101.5461223,Sempeneh
14.6300309,121.0340801,The Red Crab
17.9646356,102.6073855,Khop Chai Deu
10.3362636,123.9323941,Viking
10.3109039,123.9029052,Lighthouse Restuarant
10.306416,123.9101145,The New White Gold House Rest
3.056312,101.5418627,Restoran Lenggong
3.0562882,101.5418705,Satay Sri Utara
1.3750792,103.8983418,
7.0766664,125.6082357,Sagingrepablik
7.0731175,125.6051842,Bamboo
7.0628015,125.6095239,Colasa's Barbecue
7.0702579,125.6075462,Whaw Ihaw - Ihaw
7.0710388,125.6076175,Pard's Seafood Grill
7.0602939,125.5878531,Coco's South Bistro
7.0882663,125.6114533,Buffet Palace
7.0876027,125.6134236,Probincya
7.0887336,125.6130084,Ahfat 2 Seafood Plaza
7.0837363,125.6247256,Kusina Agdao
7.0764779,125.6143871,Penong's Barbecue
7.1023507,125.6145728,Flyover Ihaw-ihaw
16.4278867,102.7979701,บัวเงิน
16.4777087,102.8231931,
14.0745432,121.3264891,Clydenjosh
10.3378883,123.9299649,Tolgorie Restaurant
10.3123545,123.8949305,Boosog Restaurant
1.3594895,103.8854848,Suki-ya
14.5640955,121.0453425,Andok's
14.1018964,120.9501756,Bali Seafoods Paluto
14.1016182,120.9497576,Buon Giorno
14.1018318,120.9497059,Domicillo
14.1016677,120.9500675,Fire Lake Grill
14.102108,120.9516329,Leslie's Terrace Garden
14.1017241,120.9497307,Cafe Platito Atbp.
14.0992153,120.9287075,Manukan Grille
14.0971977,120.9424018,Giligans
14.0995454,120.9241756,Merben Canteen Tapsilog
14.1125389,120.9598007,Pamana
14.148396,120.993591,Treffpunk
14.1027192,120.9521457,Mile Hi Diner
14.8179698,120.2836419,Meat Plus Cafe
2.5046423,102.8154229,Medan Selera Jalan Muar
13.6874299,100.6608332,S&P
15.0007846,120.643176,BistroVerde Bacolor
14.6625633,121.2014768,El Dorado
14.6580276,121.0461123,Lola Diding's
8.481759,124.64862,BFB
14.5847879,121.0657052,North Park Nex
9.134013,124.7918593,Jna  Fishpen
14.6444492,121.0607967,Pizzetta Greek
14.6027895,121.0504373,007
15.0416093,120.6846378,Nathaniels
15.1619775,120.5955722,Car Wash Sevices
15.141781,120.578054,Grill 99
14.6036337,121.0522996,C3 Events
3.04914,101.5346045,Restoran Mukmin
14.5606487,121.0152136,Tokyo Tokyo
14.5551643,121.0177061,Swagat
16.7755652,102.6352358,
14.1460007,120.9917743,Ming's Garden
13.4872413,144.7823858,Lone Star Steakhouse
13.5176744,144.807749,Outback Steakhouse
3.0781567,101.5186729,Kafeteria
2.885031,101.7901264,Restoran Putra Station
14.4450091,121.0289475,Conti's
14.8445101,101.631623,
16.8947733,101.2298114,
17.3251386,102.0635347,
14.562164,121.0127409,Mang Rudy's
14.1979159,121.1469206,Aviles Bulalo Resto
14.6406697,121.0374502,Melo's Steakhouse
14.6403483,121.0742875,Pancake House
14.6393574,121.0742614,Sizzlin' Pepper Steak
14.6393996,121.07427,The Fat Persian
14.6387196,121.0742304,Teriyaki Boy
14.6352927,121.0740112,Craving's
14.6396938,121.0742733,Chicken Bacolod
14.6396572,121.0742709,The Old Spaghetti House
14.6391871,121.0742274,Tapa King
14.639456,121.0742724,Flaming Wings
14.6384461,121.0742137,Sweet Inspirations
14.6392392,121.0742302,Yellow Cab
14.1450251,120.9743416,Chateau Hestia Garden Restaurant
14.1264002,120.9790894,Amoroma
13.5152199,144.8072397,TGI Friday's
11.2743451,124.0637653,Cafe 5R resto
7.0784668,125.6142521,Gerry's Grill
7.0783787,125.613371,Pizza Hut
7.0409607,125.5725347,Felis Beach Resort Complex
7.0423662,125.5838815,Twin H Beach Resort
7.0822549,125.6097094,Yahong
7.0823252,125.6097725,Cubyertos
10.4913684,123.399668,La Grotta Italian Restaurant
10.4863315,123.415041,Moms Small Hotel And Restaurant
10.5221355,123.3267662,Waddy's Place
7.101117,125.6329117,Swiss Deli
7.1018738,125.6327149,Yellow Cab Pizza Co.
7.1023485,125.6329367,Merco
14.0880927,120.9060352,Viewpoint Restaurant and Inn
14.0906187,120.9116184,Tower Ground Bulalohan
14.2485465,121.0638314,Kanin Club
14.2488575,121.0637936,Poquito Mas
14.2491602,121.063944,Pancake House
3.0763086,101.5496442,Restoran Jayati
10.310534,123.914791,Bernadette's Lechon
10.325918,123.9225788,Jo's Chicken Inasal
10.32163,123.904482,Mikado Japanese Restuarant
14.5275609,121.15756,Balaw Balaw Specialty Restaurant
9.558901,100.056638,Nadimos
9.5225917,100.0570462,Magic Light
9.5584423,100.0323998,Le Virage
9.55475,99.9291717,Starry Seafood
9.4850303,99.9905022,Peak Eye View
9.4671455,100.0479758,The Verandah
9.5302678,99.988661,View Top Restaurant
14.3402744,121.4829218,Exotik Restaurant
14.4493522,121.029956,Tio Pedro's Mexican Restaurant
14.4447548,121.0289288,Pizza Hut
2.4554058,101.8570561,Restoran Dataran
2.4576254,101.8563229,Nasreen Songkhla Seafood
2.4571887,101.8563646,Selera D' Kampung
2.4523072,101.8579147,Restoran Kemang Seafood
18.0624517,120.5201212,Herencia De Paoay
14.925192,103.1420482,
7.0672682,125.6076925,Apung Kula
16.8248764,96.130204,Green Elephant
16.8023602,96.1702331,Ashoka
16.390413,107.5687064,SCAM! Don’t park here!
7.0750871,125.6107394,Honey Bear Chicken House
7.0665867,125.6089242,Harinok
7.0674554,125.6163889,Paterno's
12.9439104,100.8970864,บ่อผุด หมูกะทะ 1
12.944144,100.8982481,ฅนล่าฝัน
12.9493822,100.8992536,ราชาข้าวต้ม ผักบุ้งลอยฟ้า
12.9448779,100.8958687,Ninja BBQ Buffet Pattaya
7.0746982,125.6132344,New Asia Restaurant
7.0763422,125.6159791,Mandarin Tea Garden
14.5596095,121.0163785,North Park
14.5596444,121.0163271,Max's Restaurant
12.9359108,100.8882077,เล้งกี่
7.0659658,125.6098031,Mandarin
7.0688608,125.6056555,Mandarin Tea Garden
7.0680846,125.6063777,Kusina Selera
7.0685382,125.6058463,Davao Lounge
15.3194851,102.4348722,
14.8104931,100.5688326,
12.8633493,100.8942995,Mabasettee Seafood
12.8650836,100.8933831,Suttangrak
12.8653063,100.8932248,Peesae Seafood
12.8661262,100.8927355,Rimini
12.8704533,100.8900508,คุณอันซีฟู้ด Khun Aun Seafood
12.8729131,100.8885255,Cafe de Beach
12.8742562,100.8874684,Cafe Le Mar
12.8774916,100.8861679,Cafe Jomtien
14.5564216,121.0196853,Sisig Society
14.5568279,121.0190858,Tokyo Tokyo To Go
14.5519308,121.0134348,Andoks
14.5523362,121.0139058,Sinangag Express
14.5512808,121.014132,Amici
7.1065562,125.6462822,Hagar's Place
7.0653144,125.6061958,Panadero
14.5607193,121.0151705,Yellow Cab Pizza Co.
7.0776217,125.5823002,Karlyn's
14.1688759,121.243973,Chino's
15.7982411,120.9945365,Magellan's Garden Grill & Restobar
15.7979512,120.9944379,Marquez Restaurant
14.5499486,121.0231264,Tachibana Izakaya Robota
14.5488223,121.0246726,Isshin
14.5491344,121.0243714,Yakiniku sakura
7.0685062,125.6063446,Golden Brown
14.5507701,121.0194017,Azuthai
14.5507663,121.019462,Tsukiji
14.550781,121.0192784,Cirkulo
14.5535838,121.0140003,Kikufuji
14.5529174,121.0139412,Shakey's
7.0566561,125.600225,Pia's Cafe
14.6215018,121.0228418,Pancake House
7.0677861,125.6072688,Dencio's
7.013714,125.4961118,Starburst Hardware
7.0137198,125.4963565,Mars Agri Business
7.0993878,125.6149135,Bulls
14.5601411,121.0244599,121 Grill and Restaurant
14.5590095,121.0221964,Apartment 1B
14.5591982,121.0218999,Cafe Alfonso
14.5591836,121.0218078,Gonzo Grill and Restaurant
14.5591437,121.0215931,North Park
14.5596088,121.020453,Bento box
14.5601263,121.0201529,KFC
11.0046062,124.611461,Lugaw Ni Bossing
11.0034221,124.6099014,Andoks
7.079056,125.545776,Gutierrez Catering & Function House
15.4756638,120.5964408,Matutina's
16.224834,120.47185,Cafe Margarita
16.579616,120.315185,Natalna
15.1345659,120.5876511,Perfect Loaf
14.6225218,121.0569605,Bellini's
7.0503903,125.5884284,Mandarin
7.0492608,125.5881481,Mang Inasal
7.050308,125.5881501,Bigby's Cafe
7.05019,125.5877853,Pizza Hut
7.0501316,125.5876012,Yellow Cab
7.0502585,125.5880222,Greenwich
7.0783874,125.6142696,Mandarin
14.5479065,121.0143254,Lucky Rainbow
14.5659569,121.0087738,Patpat's Kansi
14.5497968,121.0543336,Conti's
14.5784728,120.9872263,Gary's Restaurant
14.578872,120.9819871,Hizon's
14.6015023,120.977132,LGA Froglegs
14.640999,121.0264288,Mister Kebab
14.2294289,120.9707471,LZM Restaurant
18.7807762,99.0005829,The Whole Earth
11.575649,104.9259073,
11.5690019,104.9301587,
11.5730878,104.9286017,Poun Lork Restaurent
14.5353048,121.0474481,Hap Chan
14.5351722,121.0476277,Razon's
14.5349511,121.0482012,
14.5349744,121.0480849,Bacolod Chicken Inasal
13.7300628,100.5340962,มิซาโตะ
11.5448815,104.9297278,Fook Lam Moon
11.5786894,104.9189004,Piphukthmei Center
11.577126,104.9257563,Tonle Sap Restaurant
11.5699426,104.9300039,Metro Hassakan
11.5673966,104.9307163,Café Soleil
11.5660776,104.9320058,Khmer Boran Restaurent
11.5718322,104.92937,Anchor
11.5679043,104.9202074,Sorya
11.5675212,104.9186327,Paradise
11.5443545,104.9213989,Master Suki Soup
8.6476623,98.2524176,Jai's Restaurant
7.1111599,125.6497285,Elysee's Restaurant & Coffee Club
7.0995458,125.6261957,Boiling Crabs and Shrimps
7.0968354,125.6183971,Dimsum Diner
7.0905141,125.615621,La Piscine Grill & Cafe
15.0852704,120.634638,Cook Book
15.0853845,120.6345497,Bistro Van Gough
13.8212743,100.6306935,
11.554395,104.9311911,Sweet Cafe
14.5636475,121.0289486,Tiananmen
14.5640214,121.0288899,Pizza Hut
14.5635478,121.0291975,Ziggurat Cuisine
14.5623965,121.0293901,La Tienda
7.4475843,125.8094247,Jaltan Food centrum
14.1825049,121.2244898,Dalampasigan Restaurant
14.5617484,121.0163364,Earl's Deli
14.5616692,121.015965,New Bombay
14.5506401,121.0555827,North Park
16.5900346,120.3020872,Sunset Bay Garden
7.0678912,125.6084131,Cecil's Snack Inn
7.0688776,125.6130865,Sinbad
13.9809129,107.9950274,Ngoc Lam
13.9639175,121.5252967,Casa Plaza Restaurant
13.9625771,121.5258423,Don Lauro's Restaurant
13.9622399,121.5238636,Treat House Restaurant
14.5771976,121.0669734,Aysee
0.5356249,101.4324799,Ayam Goreng Suharti
0.4914175,101.4868443,Rumah Makan Minan Harapan
1.3051479,103.9306772,Jumbo Seafood
1.2892876,103.8483036,Jumbo Seafood Gallery
14.1362583,121.4156469,Andok's
9.7353657,118.7475358,Balinsasayaw
9.7370076,118.7648199,Deloro
0.6539099,101.8216239,Resthouse Taman Tasik Seminai
11.5505035,104.9180444,Coco Tree
2.970951,101.7318521,Restoran d'Tasik
7.0972171,125.5997231,river walk
17.9695928,102.6050085,Swedish Pizza & Baking House
17.9641766,102.6019313,Enjoy
14.6169587,121.100696,Don Henrico's
17.9644448,102.6042217,ຮ້ານອາຫານບ້ານລາວ
17.9650192,102.6045208,Ai Capone
17.964704,102.6027914,Dok Champa
14.3552954,121.0441542,Pancake House
14.0588132,101.3583023,
13.974829,101.1444863,
14.1534005,101.4040591,
14.3065202,100.5656786,
14.2379135,101.3442743,
14.9698666,102.0592872,PB Restaurant
10.3448592,123.910608,Asmara Restaurant and Bar
17.9631066,102.6058266,ໂຊກດີ ຄາເຝ້
17.964318,102.6059504,MuzaïK
17.9632695,102.6051314,The Shade Restaurant
17.9632873,102.605073,Thonglor Restaurant
17.9633051,102.6050092,Sugarland
17.9633198,102.6049563,Aaschifa
14.9536668,102.0107995,Sarungkham Restaurant
14.197462,101.2195891,
9.7734759,118.7287099,Mountain Bayside
17.9636369,102.6048985,Via Via Restaurant
17.9645128,102.6056101,Osaka
17.9645898,102.6056473,Café Vanille
17.9649894,102.6029878,Nazim
17.9638722,102.6040192,Sticky Fingers
17.9640103,102.6040808,Tyson Kitchen
17.9642255,102.604185,Douang Deuane
17.964303,102.6042269,Pomodoro Pizzeria
13.353789,103.8534381,India Gate
17.9684532,102.6020685,Jamil Zahid
17.9676553,102.5992787,Youth Center
17.9665094,102.603401,Chez Joseph
14.381917,121.0446708,Ho Chai Lai
14.16959,121.2436512,Sizzlers
14.1697924,121.2436377,
14.3523929,101.9497826,Jungle View
8.1170176,98.5931974,Je t'aime (closed)
17.9544039,102.6214193,Spring Roll Shop
19.8805427,102.1307074,Maly Lao Food
17.9656203,102.6065307,Taj Mahal
17.9689824,102.6038538,Liao-Ning Dumpling
17.965838,102.6024876,Le Vendôme
17.9661543,102.5955501,Spirit House
17.9663338,102.5932422,Riverview
17.9695734,102.582934,Fuji Shabu
17.9671133,102.6006504,Fujiwara
14.0817633,121.3258384,Ihaw-Ihaw sa Lawa
13.146061,100.8070594,
14.1111205,121.1442228,Rose and Grace
2.4951048,102.8640166,Juara TomYam
18.0347858,102.6330047,ຮ້ານອາຫານເຂົ້າຊອຍ
18.0381238,102.6325841,ຮ້ານອາຫານຕິກ
10.3245965,123.934777,Joven Restaurant & Manila FoodShop
11.9717239,121.9276634,
10.8427628,107.8183283,Phuong Trang
10.8233435,107.8823514,
17.9555067,102.6162822,ສາຍຟົນ
14.1725294,121.2427732,Big Nico's
14.170526,121.2436264,Onyang's Street Wings
17.9445182,102.619146,La Scala
15.0437566,120.6881779,Dimsum vs Sushi
14.7906697,100.6010829,
14.6179371,120.9863014,
15.0336128,120.6869629,Cafe Fernandino
17.9487558,102.6194201,Vieng Nem Neung
15.0416419,120.676863,Susie's Cuisine
14.616929,121.0053144,Motorista
14.6137481,121.0010228,5 Aces
19.3608062,98.4398856,Nong Beer
17.9471202,102.6202006,Simply Me
17.9556182,102.616188,ຮ້ານອາຫານ ຕົ້ນມ່ວງ
1.2899587,103.8458766,Hooters
1.3019555,103.8401729,
1.3021014,103.8402158,
1.3022644,103.8402845,
1.302436,103.840336,
1.2999047,103.8499576,Red ahous
1.192587,104.4251507,Nelayan Grill
17.9493379,102.6191673,Buffet Donechanh
17.9471285,102.6197815,Rainbow
17.9410655,102.6180913,Monkey House
18.7974076,98.9823128,Franco Thai
15.8716519,100.605603,
14.8878672,103.497319,Farang Connection
14.6425435,103.3985946,Bua Luang
17.9381247,102.6267012,Liao-Ning Dumpling 2
17.9440608,102.6264281,Ping Pet Sekaman
17.9455909,102.6244617,Jenny
17.9470738,102.6242394,Sayroung Restaurant
17.9531207,102.6257645,Ton Hak
17.9583906,102.6134382,Soutchay
17.9584865,102.6133331,Virasack
17.9684543,102.600607,Sukiyaki Grill
17.9650565,102.5992042,Junction Pakpasack Khemkong
17.9638678,102.6083618,Shi-Zen
17.9328818,102.61624,Restaurant Km 4
17.9320978,102.6162572,Mekong Restaurant
14.3692862,101.8494848,La Bamba
14.1315594,121.4357119,Arabela
14.5670168,120.9858336,Ichiban-ya
14.5521298,120.9900736,Akira Ramen
14.5564551,121.0191317,Tan Tan Men House
14.5539741,120.998061,Pizza Hut
14.5546255,120.9981315,Nemoto Restaurant
1.3058557,103.8105878,Como Cuisine
1.3043031,103.8099818,Jumbo Seafood @ Dempsey
1.3039505,103.8102061,Margarita's
1.3108481,103.8352923,Pearl of India
13.8176707,100.6662267,
13.8225798,100.6308558,
17.9668408,102.6134722,Mon
17.9676102,102.6128418,Pho Ngon 1
17.9683669,102.61084,Khamphew Ngua Phao
17.9648114,102.6106161,ຮ້ານອາຫານຄົວລາວ
17.9653562,102.6101257,Samsenthai Grill
17.9653998,102.6096316,Baravin
17.9658626,102.6087451,Rashmi's Indian Fusion
17.9658571,102.6083704,Hongkong
17.96506,102.6082732,Xang Khoo
17.9653862,102.6085245,La Fontaine
17.9695741,102.6038672,China Soup Chanmaly
17.9672352,102.609716,4 Junction Beer Vatsira
17.9663029,102.6091465,Kiku
17.9662236,102.6109704,Chateau du Laos
17.9658028,102.6108153,Thatdam Winehouse
17.9667834,102.6111217,Pho Ngon 2
17.9668468,102.6109765,Dokkhoune Restaurant
17.9671454,102.6060253,Sichuan
17.9673846,102.605611,Khoukhanuei
17.9676271,102.6050297,Nang Cheun
17.9680843,102.6046005,Samsenthai Fried Noodle
17.9671943,102.6046923,Daovieng
17.9678153,102.6035599,Korean Restaurant
17.9668864,102.6038456,Kitchen Tokyo
17.9666023,102.6034493,ຮ້ານອາຫານ ມະດຕະພາບ
17.9667632,102.603516,Guang Dong
14.1602265,121.24077,Family Circle Canteen
17.9619947,102.6167888,Lee-Lee Chicken
17.9568259,102.6210494,Ponedany
17.9539771,102.6186105,Papo Beef Pot
17.9547689,102.6184186,Dimsam That Kao
17.9559595,102.6181117,
17.9685177,102.6223283,Kheg Restaurant
17.9681422,102.6207662,Van Anh Restaurant
17.9584425,102.6249461,ຮ້ານອາຫານ ສະຖາພອນ
14.8520092,102.0705878,ส้มตำพันล้าน
14.1683393,121.2412576,Faustina's
17.9572663,102.6145368,Tammi Donchan
10.3318629,123.8997603,Plaza Pino
2.7709077,101.7512292,Restoran Norida (Qayyum)
2.7708628,101.7624851,Nasi Kerabu Ketereh
2.8028932,101.7476929,Restoran RN Teguh 3
2.7726225,101.7669573,Restoran Ramai Seafood
2.7621889,101.7629622,Restoran Qadir's Maju
2.7707785,101.7639513,Restoran NS Al-Falah
2.7697332,101.7633484,Restoran NS
2.7788463,101.7515124,Restoran Tomyam Haji Din
17.9655068,102.5979032,Mittapharb Lao Barbecue
17.9659023,102.5964893,Mekong Balcony
17.9665275,102.5958586,Vang Mekhong
17.9662405,102.5952211,Tom Chai Der
17.96782,102.5943524,Linda
17.9664476,102.5977924,La Bodega
17.9689973,102.6024342,Mörgen
17.9747293,102.6069299,A DU Noodles
17.9752841,102.6028341,ຮ້ານອາຫານເຮືອນແກ້ວ
4.1257192,103.397258,
17.9687827,102.6134802,Coca Suki
17.9700908,102.6041474,Khua Luang
17.9707005,102.6035205,Tang Ping
17.9681542,102.6003912,Sweet Corner
14.0706357,121.3039829,Prosperity Food House
17.96712,102.6243029,Le Ranch
17.9573624,102.6156962,Kung's Cafe Lao
17.973423,102.6324223,Pyongyang
17.9734004,102.6261561,Swedish Pizza & Baking House
17.9646694,102.6085744,La Cave des Chateaux
17.9664977,102.6062945,Dresden Lao
17.9672253,102.6019202,ພິກຸນ ຮ້ານອາຫານໄທ
7.0760718,125.6211846,Ombu Chicken House
18.1301518,102.6222448,ນ.ລຳໄພ
17.9387897,102.6333676,ຮ້ານອາຫານ ໂຕ່ໂນ້
14.5758099,101.2351736,The Great Hornbill restaurant
17.9443721,102.6306387,ປີ່ງຫມູຈັນມາລີ
7.0787868,125.6078773,Antonio's Bar & Grill
10.0618048,105.7833848,Nhà hàng Cồn Khương
14.072145,121.3259133,Ramzi
5.5562358,95.3222569,Pizza Hut
17.9687149,102.6237701,Sunshine
18.2982437,102.6730603,Noodle Shop
12.9535199,100.8837888,Vedaa Indian
14.0647569,121.3224671,JE'S Mami House
1.3487755,103.5702082,Saujana Seafood
2.1951951,102.2436382,Pak Putra Tandoori
2.8247501,101.7047012,Restoran Hijas
2.8240552,101.7089086,Restoran Malee Warisan
18.1221521,102.6404607,Lammone
13.7386706,100.5529521,Ronny's New York Pizza
13.7119996,100.6066815,บะหมี่นายดำ
3.0916007,101.6412537,Mums
13.7619476,100.4934922,Hemlock
14.1646436,121.240844,College Coop Store
14.609392,121.0807758,Blackbeard's Seafood Island
14.6096077,121.0808231,Pasto
14.6091549,121.0803584,Outback Steakhouse
14.6093356,121.0803849,TGI Friday's
14.6094668,121.0806922,Agave Mexican Cantina
14.608746,121.080859,Pho Hoa
14.608841,121.08095,Super Bowl of China
15.765353,121.5659196,Aliya Restaurant
19.440121,102.4256273,Phukoun
19.4511935,103.2199072,Nirvana
19.4503999,103.2177159,Simmaly
19.4503458,103.2178831,Craters
7.8148704,98.339666,
7.8208526,98.3415918,
7.8250174,98.3388098,
7.8204327,98.3431476,
7.8202095,98.3430295,
7.8215637,98.3445488,
7.8219873,98.3414805,Pizzeria
17.9612505,102.633199,Kan Heung Restaurant
7.8220617,98.3413625,anchor inn
7.7381219,98.7727663,Tonsai Seafood
13.9638329,105.9199147,Santiphab
13.9628438,105.921331,
13.944905,105.9181283,
17.954876,102.6166929,
3.050064,101.55671,Restoran Rempah Bonda
3.0501459,101.556218,Jasmine Bistro
13.3564242,103.8600611,Viroth's
13.3555578,103.8544709,Maharajah
13.3551287,103.8550374,Le Bistrot de Paris
13.3542048,103.8543069,V&A Restaurant
14.1688685,121.2443473,Daniela
14.1690989,121.2410936,Dhenzmer's Extension
14.698126,120.9527176,Mango Grill
14.7025695,120.9432547,Head Quarters Bar
14.7047477,120.9411363,Obando Grill
14.6146732,121.0050029,Bulaluhan sa N. Ramirez
7.8201819,98.3443509,ganen
6.2797307,99.7319315,Sagar
2.7432183,101.951528,D.Nors Nasi Lemak
2.9970863,101.6681791,Restoran Al-Azwath
14.7985792,120.9245599,Gq Resto
14.7890866,120.9313199,Salakab Resto
11.9628685,121.9303564,Happy Home
11.7073841,104.9633556,
14.7013955,121.0352337,Pizza Hut
14.6732037,120.9821015,MR. T. Inasal
14.0740161,121.3261512,Azutea De Lago
1.2950285,103.8526175,
14.9051289,120.86894,Sizzling House
14.9030874,120.8682716,Max's
14.40368,120.9771987,Nikohai
16.4122666,120.5976845,Pizza Volante
16.4125808,120.5976495,Tea House
11.3273353,124.1196178,Daño beach resort
10.3137842,123.9576993,Green AP
14.6234643,121.0940144,Victory Panciteria
14.6236648,121.0951308,Berganio Tabo Panciteria
14.6267518,121.0968318,Salud Panciteria
14.6356556,121.0943159,Lola Helen Panciteria
14.6326559,121.0955934,Krung Thai
14.6326854,121.0958377,Johnny's Fried Chicken
1.1628416,104.0428882,Golden Cheng Hoo Boat
2.203721,102.224938,Mukmin Jaya Seafood Restaurant
2.203796,102.224539,Adam Pedas Warisan
1.3149287,103.8161102,Casa Verde
1.3149885,103.8153732,Corner House
1.2819879,103.8432653,Liad Fan Hong Kong Soy Sauce Chicken Rice & Noodle
1.284959,103.8425704,People's Park Food Centre Blk 32
10.1521934,97.9774933,Myanmar Andaman Resort Bar&Restaurant
1.2666406,103.8191735,Seah Im Food Centre
14.5124814,121.2392287,Era Plaza
1.311986,103.922546,Old Beach Road Prawn Mee
2.3958646,103.0186692,Medan Selera
14.1520406,121.2350804,Sizzling & Combo Food Haus
3.058655,101.506427,Idris Bistro
1.30165,103.8524418,Lemon Thai
1.3011485,103.8540987,Albert Centre Food Centre
14.5661609,121.0341268,Braya Tea House
18.0257618,102.634294,Nok Noy BBQ Buffet
3.076026,101.496861,Restoran Lontong Klang
2.5847166,102.7132833,Kampung Paya Lang Rojak
14.5746524,120.9851091,Cifu Asian Cooking
14.5744983,120.9840574,Mo Jo
1.4588211,103.8292889,Terror Club
7.0977868,125.6211885,uloy's BBQ
9.2392782,123.5838358,Triad Coffee Shop;Larena Triad Restaurant & Bakeshop
11.554358,104.9246935,Comme à la Maison
6.4896227,99.3089121,
6.488118,99.3071864,King Crab Rest.
6.4883464,99.3077654,Mamas Seafood
7.3992019,99.4530409,
7.401682,99.428897,
7.4659359,99.5155939,
17.9497634,102.620134,Lake View
12.6272378,101.4372372,Baan Rabieng Mai 2
12.6278764,101.4392328,Chopana
17.9445935,102.6442736,Khuanchai
17.9473399,102.6436827,Kung Pao T4
17.9470644,102.6436564,Pa Nam Kong
17.9481272,102.6435594,Phon Pa Pao
17.9489023,102.6434802,T-4 Sne Khemtong
1.4589092,103.843955,Bottle Tree Village
1.4533687,103.8323109,Yishun Life Seafood
1.4536402,103.8328217,
14.5533984,121.0232446,Museum Café
14.2780487,120.7395265,Lolo Claro's Restaurant
18.2227383,102.6919785,Noodle Shop
19.9348875,100.5078268,ร้านบ้านดิน
18.1606559,97.9414988,BBQ Mae Sariang
14.0020178,99.5465495,
18.0160612,102.6169438,Pamouang
18.0192425,102.6177679,Nat Phob
18.0266269,102.6197475,ຮ້ານອາຫານ ຕົ້ນຄູນ
18.0421068,102.6342811,Noodle Shop
6.8311879,99.5375195,Ban Sulaida
6.8311809,99.536918,Garden ResTaur
6.830788,99.53616,Jeabs Curry
6.8321854,99.5374396,Pin and Mudas Restaurant
7.3582499,99.2947099,Koh Yao Restaurant
7.361292,99.295879,Mayow
7.3612289,99.2962179,Rubber Tree
7.363589,99.2999809,Hilltop Restaurant
7.3706189,99.303802,
14.5374488,120.9791733,Harbor View Bistro
14.6107844,121.036631,Joey's 4x & Force
14.6139833,121.0374364,Amazing Cones
14.6387083,121.0360273,Gerry's Grill
17.9643898,102.6072546,Benoni Café
18.0320584,102.6341573,Ong-mee Grilled Pork Ears
1.0776664,103.9300801,Delima Seafood Restaurant
10.699772,122.5566307,Al Dente
18.2632671,109.4923619,Fish Restaurant
18.2341767,109.5158631,Harbin
10.700917,122.5580019,The Mellow Mangrove
18.8677055,99.3075154,Tharnthong Kitchen
18.7006193,99.1625737,
18.736147,99.1238609,
8.0314839,98.8220626,La Luna
16.5205284,102.8314509,
16.4895073,102.8319628,
11.579171,102.9447221,Malop Chhne Koh Yor
17.9742134,102.6225493,Hà Nội Quán
2.9959328,101.5731613,Warung Kopi Mak Jah
3.0019682,101.3758889,
17.9838579,102.6231037,Somboun
17.9867589,102.6232807,X2
18.031993,102.6344352,Pin Ngua Nong Phoy
19.585295,97.9465978,Chinese Tea House
18.2227632,98.4823225,
16.7033812,103.0682202,
13.623112,123.1853901,Naga Garden
13.6217505,123.1854876,Naga Oyster
13.6321999,123.1961459,Wok
13.6317873,123.1966165,Chili Peppers
13.632158,123.196176,Shakey's
7.7965729,98.9913528,Ko Jum Seafood
7.794702,98.991707,
13.6239691,123.194938,Tribo Grill
13.6200277,123.2006628,Podo Grill
13.6250351,123.1858958,1st Colonial Grill
13.3548539,103.8583758,
14.4983832,121.0149505,Carlo's Pizza
14.5986994,120.9781158,Green Seas Seafood
17.9110702,102.6220694,Jo Anne Garden
17.9184118,102.6195636,Noodle Shop
17.9087256,102.6238249,Annana
17.9198617,102.6190579,Pinky Beef Pot
17.9221767,102.6181197,Alex Beef Pot
17.9343328,102.6198039,ແອນນາ ປີເງເປັດ
17.9347044,102.6197917,Europe
17.7998442,94.4867432,
18.073799,102.7467517,Noodle Shop
11.7354357,122.3337881,Aroma
14.5985336,120.9791292,Pizza Hut
14.2916996,120.9099825,King Bee
14.3859872,120.8799951,Plaza Canteen
14.502429,120.9990766,King Crab House
17.9892564,102.6365255,Chowon
18.0199432,102.6507896,Golden Elephant
14.4943992,120.992677,Pizza Hut
14.6011901,120.9750954,Dong Bei
17.8721936,102.668326,Sivilay
7.2259972,99.3659984,Libong Beach Resort
7.2282302,99.3954684,
7.2182039,99.3713607,
12.1350254,102.3217138,Amber Sands
14.4650189,121.0202423,Pizza Hut
1.3962012,103.8728685,Thasevi Food Jalan Kayu Prata
19.8913856,102.1330764,Hot Pot Restaurant
14.117296,105.8551755,Metho Donekhong
15.121486,105.8049666,Delta Coffee
14.497068,121.0205291,Mrs. B's Food Box
14.4952087,121.0138987,Sanso Grill
7.6494353,99.0389983,The Frog Restaurant & Bar
14.5022412,121.0210892,Le Delice
14.5631321,120.9952101,Kenny Rogers' Roasters
11.5606663,104.9179815,Indian Restaurant
11.5615124,104.918188,Mama
18.1215557,102.6456658,Seliphab
13.7869864,121.0574348,El Torro
7.8975004,98.296197,On the Beach Restaurant
7.897602,98.2958997,Sabai Beach Restaurant
8.0129022,98.8436979,Yam Yam Restaurant
14.5584097,121.0216768,Chilli Pepper
14.5608978,121.025235,Coquina
14.5610788,121.024875,Kitaro
14.1432056,120.9556988,Säntis
13.8789444,120.9230647,Taal Bistro
7.0745634,125.6130034,Kitchen Pantry
7.0818586,125.6105725,Lets Crab Eat
13.8876212,120.9372613,Taal Bayview Bistro
7.0807681,125.6110961,Barbeque Boss
7.0806778,125.6104048,Pinutos Republik
7.0707008,125.6047958,Mandarin Tea Garden
14.5614623,120.9895388,Kuya J's Restaurant
14.2921937,120.9081852,Tempura Sam
14.3015775,120.9536693,Gerry's Grill
14.3005303,120.9573203,Shakeys
17.425145,121.777407,Famous Cabagan Pancit Restaurants
1.4888665,103.9168677,Rosni Cafe
11.7083806,122.3629131,Kitty's Kitchen
14.3779867,121.0459867,North Park
1.4846559,103.8179881,6 Corner Senibong Seafood Tomyam
8.9111761,98.5253074,Morning Mist
17.9684313,102.6029977,The Chicky
10.7113239,122.5508326,Buto't Balat
10.7264749,122.5566396,Carlitos
14.422594,121.0292638,Cafe Mary Grace
14.6120923,121.0319962,
8.0624196,98.918384,Up2You
16.0223766,102.7096522,
16.1939009,102.7574525,
15.7963409,102.6080525,
15.8203683,100.7601317,
15.6318812,100.1295969,
14.1624435,100.7476732,
14.4099971,120.878052,Calle Real
14.4103882,120.8782489,Urashima
14.4066382,120.8782249,Kyo Hachi
2.9601324,101.7542973,Restoran Amir
14.5896291,101.0235455,
14.6334633,101.235068,
14.6887267,102.52885,
14.6278464,103.4046731,
19.4960039,103.9868338,
15.8474475,103.5614498,
16.4246973,103.4853504,
15.1930939,120.5395855,Four Seasons
11.9232656,108.4438132,
11.9412839,108.4316096,Mi Vinh Loi
12.4124132,108.1702475,
14.6249449,121.1026131,Marikit Na Hapag Kainan
16.0747742,103.5888209,
16.2160499,103.2765438,
16.0555059,103.6986476,
16.0250361,103.9458774,
17.2545783,104.0076543,
15.1307688,120.5973566,Batis Azul
14.6307291,121.0947392,La Tora's Garden
18.0375621,103.0725869,Noodle Shop
8.0612378,98.2774675,Eff & Gap Bar & Restaurant
8.0630285,98.2780796,Aek Naithon
8.0619766,98.2772689,Peter's Bar and Restaurant
8.0615694,98.2773507,Blue sunset
8.0631332,98.2784371,
15.3968556,104.5545005,
8.060157,98.2779376,Chaolay Bistro
8.0594218,98.2780742,Wiwan Restaurant
8.0592202,98.2781154,Shameena
8.058411,98.2779865,Bamboo
8.0582757,98.278002,Beach House Restaurant
8.0584238,98.2782315,Pinnochio
8.0579337,98.2782856,Coconut tree restaurant and bar
8.0574206,98.2783578,Naithon Beach Resort Restaurant
8.0560831,98.2784042,Khwanta Sea Food
8.0563894,98.2784712,Naithon Beach Club
8.0565936,98.27843,Tien Seng
13.7136641,100.5521061,The Terrace
1.3162268,103.8056751,Empress Road Food Centre
14.5665588,121.0137319,Bacolod Chicken House
10.6850687,122.9569649,Chicken House
15.5933496,120.6097663,Isdaan Gerona
10.41173,119.17654,Elbusero
14.4571938,121.0361322,Sérye
10.6733575,122.9582006,City Lunch
14.5599667,121.0197819,Chocolate Fire
10.6719095,122.956661,Lan Ten Lomi
10.6958939,122.9609401,Chinky's
10.6628637,122.9672138,Mang Inasal
10.6796324,122.9577232,Acacia Grill
11.3346635,108.8515116,
12.4128474,108.182322,
15.1640066,120.5894405,Rib Eye
15.8806849,120.6005994,Bistro Garitoni
15.9453854,120.5800056,Max's Fried Chicken
14.6456672,121.0280067,Don Henricos
14.645338,121.0279021,Hap Chan
14.6456268,121.0274918,Cabalen
14.6476871,121.0285144,Shantung Restaurant
14.6423758,121.032385,Grills and Sizzles
14.6568777,121.0192069,Robina's Chicken
14.6420031,121.0326796,Lola Idang's Bahay Pansitan
14.6396069,121.0293957,Aberdeen Court
15.1650708,120.5617316,Maranao Grill
15.1599159,120.5909785,Mar's Garden
14.5562886,121.0255843,Old Swiss Inn
10.6463423,124.385587,Sea breeze Resto
15.1393959,120.5607176,Grand Palazzo Royal
9.6418732,123.8555198,Pizza Hut
10.3248341,123.977334,Mang Inasal
15.1351988,120.5891448,camalig
1.2928553,103.7685707,The Cheese Prata Shop
16.2908942,120.589296,Camp 3 Eatery
16.4040298,120.6145017,House of Waffles
14.5716017,121.048129,big bellys
14.5497791,121.0539464,ArAma Café
14.6328854,121.0832417,Dolora's Hauz of Pancit Malabon (Barangka Branch)
14.6336504,121.084803,Red Paint Bar & Grill
13.8950794,120.9060828,Gangnam Korean
17.98089,102.53405,Nong Oh
14.059924,121.3162059,La Jardin de Virgilia
14.4521837,120.9774738,Hap Chan
14.4243655,121.0321159,Italianni's
16.4175377,102.8326631,บ้านสวน
16.4176233,102.8342112,แจ่ม
16.430213,102.8325446,Lighthouse
7.8949238,98.2961246,Alpengrill
7.8950177,98.2962727,Grillhütte
16.4109141,102.8349518,ข้าวมันไก่เฮียเป็ด & Café
16.4188931,102.8404592,บ้าน ป. โนนทัน
16.4125467,102.8414747,แจ่วฮ้อน Connect
16.417546,102.838563,บัวหลวง
16.4182207,102.8407908,2K เนื้อกะทะ
16.4209639,102.8395938,ตุ๊กตา ปลาจุ่ม
16.4177287,102.8407874,เก๊ต เนื้อกะทะ
16.4089012,102.8402707,เพลงพิณ
16.4169807,102.8411923,ครัวเพื่อน
16.4061164,102.8386752,ลองแล
16.4168988,102.8347022,สำราญ
16.4171038,102.8347597,ป้าอ้วน
7.3382723,134.4542661,Bottom Time
7.3296435,134.4551388,Riptide Bar & Grill
7.3293455,134.4542483,Little Beijing Restaurant
15.2786774,104.8461479,
15.2512285,104.8887229,
15.2507032,104.8855393,
10.6813898,122.9636581,Quan
15.2395354,105.2368071,
10.6734862,122.9591322,Natures Restaurant
10.673365,122.9597545,Bacolod Cansi House
10.6758757,122.96077,Ting Ting's
10.6697173,122.9513314,Time Out
1.299202,103.7758228,
1.294268,103.7743689,The Terrace
10.6749477,122.9541326,Imays
10.6754522,122.9533568,Quan
10.6701817,122.9542258,Jo's Chicken Inato
9.070751,99.8361501,
19.8896115,102.1381768,Lao Lao Beer Garden
19.8881185,102.1401794,Utopia Bar & Restaurant
19.8888111,102.130757,Riverside Sunset Restaurant
19.8908299,102.1393814,Donesavanh
19.8928251,102.1385275,The Pizza Luang Prabang
19.8940987,102.1373859,View Khem Khong
19.8887787,102.130948,Antique House Restaurant (ร้านอาหารบ้านโบราณ)
19.8917783,102.1370104,Tum Tum Bamboo
8.095186,98.2994076,Nai Yang Restaurant
10.6713809,122.9476902,D' Breakers
10.6798825,122.9586989,Taste Station
10.6804802,122.9618853,Bob's
19.8934132,102.1399595,Chang Cafe
19.8933404,102.1363625,Son Phao Restaurant & Traditional Show
19.8889565,102.1312666,Pizza Sassa
13.6843731,100.5346881,Madee Rest
18.1976926,120.5887142,La Preciosa
14.5871037,121.0785536,Cainta Gymnasium
14.5876213,121.078156,Big Red Barn
14.5874385,121.0782454,Teriyaki Boy
14.5879364,121.0784801,Blue Whale Grill
14.6184417,121.0928908,Mang Inasal
14.6192747,121.0965895,Bakahan at Manukan
14.6191507,121.0965795,Barrio Fiesta
14.6215318,121.0925866,Sa Banda Rito! (resto)
14.6206317,121.1028606,Pizza Hut
14.620785,121.1035375,Abel's Lechon Pinoy Deli
14.622453,121.10915,Mama Lily!
14.6220788,121.1099607,Charlie Wanton Chinese Restaurant
14.62273,121.11242,Golden Bibi at Iba Pa Restaurant
14.626492,121.096855,Barbecue ni Suki
14.6271126,121.0970628,Chacha's Lutong Bahay
14.624449,121.118767,Dampa sa Antipolo
14.624433,121.121327,King Bee Chinese Restaurant
14.6250399,121.1236431,Pizza Hut
10.6735258,122.9588876,Natures Restaurant
16.475417,107.6003928,Nha Hang CUNG DING Restaurant
10.6049688,123.0411725,
10.6704066,122.9458205,Golden lion
10.6604937,122.949079,Chinkys Libertad
1.0521979,103.9733419,Sate/Gulai Kambing Aviari
14.0588532,121.3185083,Rental
7.0736791,125.6148622,Davao Famous
13.7129507,100.593803,รสเด็ด บุฟเฟ่ต์ กุ้งกะทะ 109
8.0887995,98.3051605,
8.0910912,98.3051733,Garden Cottage
8.0972902,98.3062165,Mango Saloon
7.8847086,98.3824761,Gobenz Phuket (Rte. thai petao)50B
10.3227472,119.3447318,Non La Aromasit
9.7365837,118.7486444,Tom Tom Club
14.5760539,121.1439255,Rizal BBQ Special
7.8834917,98.388532,ASquare
10.659989,122.9488609,Mang Inasal
1.08052,103.93621,Pujasera
1.11202,104.00308,Kak Dadut Rest.
1.1260264,103.9278736,Keindahan Suasana
0.94298,104.07834,Aneka Selera Sea Food
0.82565,104.24417,Cita Rasa Seafood
0.8562,104.26409,Sea Food Pak Long
14.5499099,121.0522825,New Orleans
14.5498186,121.0526157,Mini Shabu-Shabu
14.5508968,121.0512934,Agave Mexican Cantina
14.5504375,121.052356,Ikkoryu Fukuoka Ramen
14.5499298,121.051995,Italianni's
14.5512526,121.0497995,Kabisera
14.5507811,121.0515965,Cav
8.9092865,98.5229424,ร้าน ป้าหมุน
8.9102754,98.5237241,Smiley Bungalow's Restaurant&Bar
8.9111483,98.5244557,ร้านอาหารไทยเฮิร์บ
8.9124693,98.52506,Da Pipino Pizzeria
7.6248477,99.0311712,Time for Lime
7.634916,99.033401,Krua Luk Jun
7.6357793,99.0334672,This Is Issan
13.9150317,121.0711896,Ereneos Mountain view Restaurant
10.6603789,122.9505212,Chinky's
17.0088088,99.8132278,พิกกี้ หมูกะทะ
17.0083604,99.8145032,
17.0083092,99.8151684,Poo
17.008774,99.819589,
1.15253,103.99804,Sea Food
1.15,104.00285,Rm.Padang Bundo Kanduang Jodoh
1.14805,104.00362,Rm.Padang Simpang Tiga Jodoh
1.1535,104.00836,Podok Kuring
1.1478101,104.0096299,Martabak Har (Indian Food)
1.13236,104.0494099,Sanur Restaurant
14.2481264,121.0654506,Zong
1.11073,103.94921,Rumah Hitam Restourant
1.10745,103.95354,Bundo Kanduang
16.4251043,102.8366824,หน้าบ้าน
16.4000217,102.8310431,เพ้ง
16.4257396,102.836562,วอร์ม
16.4068814,102.8333755,บางกอก
16.4250254,102.8195798,MK Restaurants
16.4009704,102.8159433,MK Restaurants
10.7946767,122.9734181,SIR
10.7992504,122.9761639,Hestia's
18.2759989,99.4808892,MK Restaurants
17.9745044,102.5774719,ກຸ້ງເພົາ
17.9740297,102.5777266,Kua Heaven
1.1146016,103.9851147,Bandreks 555
1.11453,103.98401,Podomoro Cinesefood
1.11453,103.98394,Sate Madura
7.3335797,134.4565507,Palm Bay Bistro
16.4598235,102.8322697,T-Bone Steak House
16.4452167,102.8300048,Happy Buffet
2.7025863,101.917761,Pak Tam Kopitiam
18.0532757,102.6261609,Ban Sufa Garden
10.6447234,122.9344796,
16.432584,102.82549,
16.4312116,102.8308862,สายป่าน
16.4300974,102.8314129,
16.4304193,102.8250076,เรือนไทย
16.4267771,102.8416209,VIP ส้มตำ Club
16.4317481,102.8271884,Hunhang
2.7163116,101.948635,Restoran Nelayan
10.1992904,122.8650093,Mila's
7.5767909,99.7858627,ร้านอาหารมุสลิมเขาพับผ้า
7.4843724,99.0847341,Kung-fu bar
14.6371272,121.0254275,Shakey's
14.6368307,121.0277665,Marina
16.429072,102.829006,Didines
7.4867818,99.0831994,Last Beach Restaurant
2.8149891,101.7974709,Pizza Hut
2.8147745,101.7974066,Nilai Secret Recipe
2.8142382,101.7973423,Nilai Amira Seafood
1.0566785,104.0349766,Panasera
12.9291278,100.8800076,Bigg Boss
10.6881765,122.9593664,
18.7775385,99.0557951,เศรษฐศิลป์
11.0144342,124.5950127,Tempura Haus
14.6387463,121.0269279,Shangri-La
16.4329153,102.805637,สมชายเนื้อเกาหลี
16.423003,102.8343579,Food Center
16.4323883,102.8061347,ซัน
16.4412082,102.815393,เซ-ซิ-บอง
16.432057,102.8063777,คันทรีโร้ด
16.433182,102.8054184,กังหันลม
16.0738518,108.2032513,Nhà Hàng Chay & Cà Phê Thúp An
17.9777578,102.4964809,
16.412797,120.593352,Baliwag
16.4343091,102.8323927,หน้าไม้
14.6238322,121.101782,Doloras Pantalan Grill
14.6225239,121.0973579,Mom's Kitchen Diner
14.5877867,120.9774039,Ilustrado
16.4339149,102.8119264,ระเบียงขอนแก่น
16.4597098,102.8290101,ตรัวละมุน
1.13985,104.01549,Pizza Hut
1.1433722,104.0114628,Bubur Jakarta
1.1435,104.01143,Hawai Sea Food
1.14361,104.01156,Pa Ciu Ciu 24 Food Court
1.14198,104.01235,Rm.Padang Sederhana
1.14123,104.01354,Winsor Food Court
1.14099,104.01345,Winsord Seafod
1.1408,104.01529,Seafood 888
1.14633,104.00691,Sop Ikan Istimewa (Yongki Seafood)
1.15685,104.00351,Warong Teh Trek
1.14545,104.00579,Rm.P.Salero Bagindo(24Hrs)
1.15144,104.01081,Sop Kondro Anging Mamiri
1.14638,104.00907,Gado-Gado Gembira
1.14638,104.00854,Vegetarian
1.1456501,104.0111099,Sate Padang (Dinner)
1.15522,104.01911,Food Court Srideli
1.1447701,104.0176999,Saung Sunda Sawargi Restaurant
1.14393,104.0220499,Sofonta Cafe
1.14318,104.02251,Peak Pujasera
13.3641515,144.7697371,Jeff's Pirates Cove
13.4720013,144.7546619,Shirley's Coffee Shop
13.5102283,144.8206284,Shirley's Coffee Shop Harmon
13.8018073,100.5815635,เป็ดท่าดินแดง
11.0115134,124.6087071,Jo's Milagrina
14.5847152,121.0645697,JT's Manukan
14.5800504,121.0597825,Rufo's Tapa
14.5803417,121.0599749,Pancake House
14.5857626,121.0657642,BlueFrog
14.5845669,121.0675004,Brooklyn Pizza
14.5872775,121.0641749,Misato
14.5857056,121.0640269,Ye Dang Korean Barbecue
14.5848842,121.0632438,Yellow Cab
14.5870807,121.064685,Pancake House
14.5865979,121.0645116,Woodfire Grill Republic
14.5876755,121.0670237,Ang Pulo
14.5863617,121.0615074,Pancake House
14.5816818,121.0609853,Buddy's
14.5838116,121.061882,Manong Pepe's
14.5760851,121.060009,Tip-C Restobar
7.6045529,125.163091,Traveller's Fast Food
7.123705,125.480022,Santander Hito
7.0301762,125.3980697,
7.1420514,125.6612876,Dose
7.1238168,125.4802823,Golden Egg
14.5866438,121.06031,Pancake House
13.624318,123.185317,Geewan
16.6789208,102.803877,
17.3367704,102.8336599,
15.1199877,105.7986073,ໂຮງແຮມປາກເຊ
17.385893,102.8038036,
17.3913689,102.785057,เพ้ง
17.4208194,102.8129413,
17.9652372,102.6046075,Aria
10.8001038,106.6726617,Khách Sạn Tân Sơn Nhất
14.6353599,121.0280614,Ha Yuan
14.6517541,121.0506929,Coconut House
1.14994,104.13215,Rm.Padang Batu Besar
1.15378,104.14009,Rezeki Seafood
1.1462701,104.1425148,Seafood Cahaya Baru/Apek Kolor
7.0786157,125.6047633,Nanay Bebeng's
14.1697035,121.2438128,Vimarie Food House
14.9719127,120.6303209,Luring's Restaurant
6.1221175,125.1904325,Sea of Galilee Crab House
6.405843,124.8832412,Hill Side
6.2129725,125.0657839,Sadok Restaurant
6.2560729,125.0218309,Durian Garden
6.2000018,125.0793494,Villagio
6.1560315,125.1237764,Buhay Bario
6.2016067,125.0769697,Jay's Lechon
6.1301738,125.1984856,AVL Restaurant
7.0604287,125.5643874,Wa Ki Restaurant
6.2147993,125.0609726,Rosas Lechon
7.02095,125.4976138,Penongs
14.4552611,121.0135203,Hana Japanese Cutlet
14.4559301,121.0100715,Flaming Wings
14.4561008,121.0089951,Sinangag Express
14.4561866,121.0088234,Little Rio
14.4559387,121.0092553,Gourmet's Palate Charbroiled Burgers
14.4557386,121.011544,Toto's Lechon
14.4558655,121.0103224,Food De' Sentosa
14.45532,121.0136848,Aucklands Family Restaurant
14.455892,121.0095349,Min Restaurant
14.4554509,121.0127476,Niro Cafe & Pizzeria
14.4559881,121.0090135,Baliwag Lechon Manok
14.17028,121.1377273,Clarte's Pizza
14.1526317,121.1365245,Ate Emms Goto
13.7806782,121.0680614,Romy's Special Lechon
14.9590583,102.0418417,Mae Jampa
18.7927325,98.9931261,Ginger & Kafe
10.7038728,107.987087,Trọng Tâm
10.7179765,108.0001589,Hoa Sứ
14.169235,121.244912,Copacabana Resto Bar
14.1687142,121.2442307,Siomai Foodhaus
14.1694073,121.2448183,Cube's Sizzling Restobar
14.1694818,121.244798,Mommy Ludy's Cuisine
14.1696359,121.2446187,KumPARES
16.4349871,102.8380105,ข้าวต้มแต้จิ๋ว
16.4350776,102.8382043,สีลม
16.4154172,102.8350166,อ้วนสมบูรณ์
16.4332506,102.831058,เจอกัน ฟูด & ดริงก์
4.383765,102.400724,Floating restaurants
16.4343527,102.8381222,เมี่ยงทอดอุดร
16.4249322,102.8364502,แชมป์เนื้อเกาหลี
16.425549,102.8365378,เย็น-เต็ก
14.3642538,121.482545,Pancit Africano
18.824704,99.0111326,
11.2168918,125.1807591,Caluwayan Palm Island Beach Resort & Restaurant
13.7705383,121.0651293,Delica's Garden Grill & Business Center
13.7669429,121.0624481,TNF Disco Pub & Restaurant
13.7703455,121.0650166,Riggs Cafe Bar & Restaurant
16.4224014,102.8331139,ราดหน้ายอดผัก บุญนำบ้านสวน
1.4420102,103.8250086,MOF
1.4478747,103.819345,Sushi Express
1.4418864,103.8245461,Chick A Boo
1.4418638,103.8247615,Aston's
14.6391571,121.0287661,Dave's Tropical Breeze
13.7408572,100.5560991,
13.6742796,100.6385404,
13.674978,100.6410403,
13.6744777,100.6406218,
13.6720044,100.6359092,
13.7362431,100.5577226,Cabbages & Condoms
13.7380015,100.5561983,Kinnaree
13.7422202,100.5519644,Tsu Nami
13.7400421,100.553061,
15.1205887,105.7991955,Sala Champa
13.9393143,105.9474655,Sammoua
14.1184427,105.8558747,Pon's Riverside
14.0662823,100.6070062,BKK GRILL
14.8971953,105.8811251,Souchitra
1.3449077,103.9314365,Design Pad
14.0662342,100.6065059,ร้านลุง&ป้า
7.9016689,98.3100774,Baantong BBQ
17.9495842,102.627902,?
14.1759237,121.2427076,Herb Republic
13.3541307,103.8550702,Socheatra
16.71006,98.61595,ร้านอาหารบนสันเขื่อน
14.1684724,121.2412135,Chubby Habbi's
14.1721378,121.2433414,Mio Cantina
13.3547337,103.8542889,Red Piano
13.3545542,103.8543322,In Touch
13.3544115,103.8547132,K Noodle
13.3544582,103.8552688,Grand Cafe
13.3552044,103.8549978,The Indian
13.354806,103.8548809,Le Tigre de Papier
13.3544971,103.8546411,Chamkar
7.8872497,98.3029843,The Corner
7.8875792,98.3027322,Jips Guesthouse
7.8874624,98.3026946,
7.9166191,98.291105,Acqua
7.9168636,98.2908529,
7.8972093,98.3011794,
7.8971658,98.3013246,
7.8938163,98.2953184,Tropica Restaurant
7.8935187,98.2951736,Patong Seafood
7.8928173,98.2948088,Pizzaro
7.8927004,98.2947444,Baitong
7.8925888,98.2946908,Papaya
7.8920336,98.2945768,Harrys Steakhouse & Pub
7.8919924,98.2946881,Mamma Mia
7.8916468,98.2940935,Kwality
13.3586114,103.8540426,Barrio
7.8915726,98.2953814,Karlsson's
18.5209934,102.5090981,ຮ້ານນາງຄຳໝູນ (ອາຫານຕາມສັ່ງ)
14.4220683,121.034035,Melo's Steakhouse
7.8908987,98.3019316,Hemingway's
7.8865931,98.2925992,Rajput Baba
7.8866416,98.2925697,Tehran Iranian Restaurant
14.3651671,121.4834207,Woodstock
6.9941546,100.4732257,ปรารถนาโภชนา เทียน เทียน ไหล
15.0278736,120.6733862,
7.8929226,98.296319,
7.8930608,98.2963565,
7.8931989,98.2963941,K & K restaurant
7.8933371,98.2964316,
7.8934646,98.2964746,
16.4669362,102.8170223,
15.0152355,120.7040126,MDLD Grocery
7.8903971,98.3006196,Jeffer
3.283441,98.5567297,
3.283365,98.5565784,Tourist Restaurant
3.2433959,98.5355122,Tourist Restaurant
14.88812,103.497534,Oasis Restaurant
13.6309745,123.1973605,Triboo Grill
13.6324496,123.1983193,Grilling Point
13.6311788,123.197208,Red Platter
18.1225216,102.648849,Nongsuem
16.460592,102.7855593,ประไพรสนามบิน
7.887316,98.2915406,Cafe del Mar
7.8876219,98.2917678,Seaside Terrace
7.8881595,98.2921992,Ali Baba
7.8884593,98.2924082,Terrazzo
7.8886787,98.2925519,Sam's Steaks & Grill
7.8888943,98.2926626,Baluchi
7.8888769,98.2927373,Borsalino
7.8895595,98.292971,The Palm
7.8897404,98.2931162,Lai Mai
17.9538253,102.6222863,Korea Restaurant (ຮ້ານອາຫານເກົາຫລີ)
13.4765301,144.7552841,Meskla Chamoru Fusion Bistro
2.6712875,98.8614418,Rumba Pizza
2.6645058,98.9313591,Hong Kong
2.7635144,98.7413733,
15.0316088,120.6756725,Fortune Hongkong Restaurant
15.030411,120.6756894,Bubusuk Restaurant
15.0279642,120.6743987,
14.6870842,120.545513,Joyous Resort
7.900991,98.2998945,Grillhouse
7.9007519,98.2997979,Byd
16.4690602,102.8302131,
10.580929,99.1158014,คุณสาหร่าย
3.1293103,101.6710788,Nando's
16.4656228,102.8253074,ศูนย์อาหาร หนองแวง
16.4733404,102.8242938,
14.5870712,121.0619098,Yellow Cab
14.5865351,121.0619013,Reyes Barbeque
14.5846968,121.0608282,Shakey's
14.5850708,121.0608055,Archipelago 7107
14.5851193,121.0603735,Atchie's
14.58496,121.0604535,Nagomi
14.5849568,121.0604901,Sone Do
10.3107816,123.9145848,Conching Native Chicken and Fastfood
16.4703608,102.8243958,
12.5687018,99.9599954,Hagi Japanese Restaurant
14.6269108,103.4675077,Ryan's Resort
15.1032295,120.6171902,Green Kitchen Restaurant
16.4757119,102.8259184,
16.0820334,120.3450715,Nena's Garden Restaurant
18.7836346,98.9966922,Green Days
19.3565,98.43686,
19.35551,98.43832,Sirinya
19.35838,98.43686,
19.38044,98.42781,Lung Cha
19.38555,98.42499,Khrua Cha San
19.3596976,98.441483,
19.38817,98.43561,Shark Riverside
18.7846907,98.9936787,La Terrasse
18.7849007,98.9944827,Raming Restaurant
18.784969,98.9943377,Chez Marco
0.65048,99.7838629,Wisman Resaurant
16.4741648,102.8212389,
18.8072089,99.0047226,Brownie Steak & Bakery
16.4782315,102.831449,
16.478044,102.8196993,
16.4800059,102.8187155,ตลาดโต้รุ่ง
13.4952758,144.7901065,Bamboo Vietnamese Resto
16.4507618,102.814582,โรงอาหารคณะนิติศาสตร์
14.1680365,121.2415258,Big Star
14.1457841,121.0372011,China Palace
18.7904288,98.9911836,The Wall
16.4800807,102.8100144,
16.479286,102.8100072,
16.4674894,102.8134566,ไก่ย่างปรีชา
16.479509,102.8072469,
14.445031,120.9941026,Chowking
15.0858014,120.6343427,Red RickShaw
18.909105,99.1317256,
15.0339386,120.676905,Holiday Land
18.8488068,99.2693025,
14.6515179,120.9833696,Pizza Hut
14.6515283,120.9831658,Red Dragon Rest
14.6517878,120.9824577,ORIENT Pearl Seafood Restaurant
14.552297,121.0445687,Akira Sushi & Tepanyaki
14.5522729,121.044469,Melo's
14.5523913,121.0449753,Southern Grind Bistro
14.5523237,121.0440973,
14.5523909,121.0446867,Gambino
14.5523247,121.0446305,Henry's place
14.5524296,121.0448429,Sunrise Buckets
13.9859187,100.6152821,ข้าวต้มโหงว
1.10574,104.06549,Salero Basamo
1.1274501,104.05136,Resto Kediri Restaurant
1.1279765,104.0517473,Rm.Padang Sederhana Batam Centre
1.12835,104.05033,Sop Ikan Istimewa (Yongki Seafood)
1.1276701,104.0523299,Restaurant Pondok Gurih
14.9680102,120.6216016,San Pablo Restaurant & Catering
10.7917925,106.6719463,
10.7921508,106.6710451,
14.4762113,121.1964701,Michael's Restaurant
14.3114146,121.0722392,Rai Rai Ken
14.3109863,121.0723854,Cafe France
10.4146443,106.3401098,
10.7923478,106.6796389,
15.4902595,120.5908813,Cindy's Restaurant
10.7858057,106.6985686,Hoa Viên Brauhaus
14.0652325,100.6015048,สมชัยลาบยโส
14.5487332,121.0561367,Trellis
15.0722752,120.645159,Luring's Restaurant
16.4377011,102.8038243,ลองแล
13.6336423,123.1947475,The Tent
14.0653772,100.6237342,ลุงอ้วนไก่ย่างวิเชียรบุรี
7.0818749,125.6015052,Lachi's
15.0539094,120.661082,Dulangs Restaurant
13.457575,123.6809697,DJC Halo-Halo
14.5451563,120.988018,Songdo-won+Jinmateu 송도원+진마트
14.5464544,120.9876854,Maru
14.8232114,120.951784,Tita Pining Lugawan
16.4439367,102.7939887,ร้านอาหาร ลีลาวดี
14.7981367,120.9623882,
14.819424,120.9625011,
13.4924663,144.775167,Santa Fe
14.7545246,120.9539725,Barko
14.5823717,120.9841523,Pancake House
14.8545705,120.8145782,Max's Restaurant
14.8545227,120.8146257,Fortune Chinese Restaurant
10.9484396,108.2036448,Anh Trang (Moon) Restaurant
10.946487,108.1993679,Rang Forest
10.9460555,108.198371,Shree Ganesh
10.948646,108.2041878,ABC Restaurant
10.9454185,108.1971456,Guava
10.9464374,108.1978175,Terasse
10.9453594,108.1969974,Luna d'Atunno
10.9467616,108.1999878,Nhat Nguyet
10.9464406,108.1992403,Vidotour
10.9500425,108.206976,Snow Sushi Bar
10.9477826,108.2021478,Golden Sand Restaurant
10.9457921,108.1977291,Number One
13.8552919,100.5698924,บาร์คณะประมง
14.4414097,120.9915723,Magic Wand
13.8603841,100.5510824,ราดหน้า
13.8600195,100.5518227,อาหารตามสั่ง
13.86003,100.5520373,ผัดไท
13.8695817,100.5534106,ก๋วยเตี๋ยวเรืออยุธยา
13.8701025,100.5563074,The Corner
15.0777722,120.6409075,Sylvia's Restaurant
11.0046373,124.6094589,Young Attitudes Patisserie
11.0038468,124.6133573,Gen's Kitchenette
11.0047459,124.6105261,Fat Choi
11.0046441,124.6079186,Bahia Coffee Shop
14.456763,121.0361974,Yellow Cab
1.13086,104.04756,Stamina Ocu
1.12818,104.03845,Obonk Steak And Ribs
1.12854,104.03808,Pondok Ikan Bakar
1.12009,104.04285,Seloka (Breakfast Rest.)
11.0069836,124.6080036,Bella's Restobar
18.0562884,100.6805889,Floating restaurants
1.1257801,104.0307599,Maharaja(Indian Food)
1.11052,104.04119,Pujasera Green Land (Dinner)
3.1043199,101.6401656,Oversea Restaurant
1.12835,104.02999,Mie Tarempa
1.1276,104.03293,Ikan Bakar Pak Ndut
1.12966,104.03768,Pak Datok
1.13393,104.0300949,Mie Aceh
1.15865,104.02085,Salero Basamo
1.1603,104.03718,Golden Prawn Seafood
1.1293466,104.0476253,Restourant Ikan Daun
14.6063264,121.0786679,Shakey's
1.3319637,103.7745599,Makan Place
1.3352565,103.7761971,
10.3830884,125.2137088,Rosita's Restaurant
18.8658955,99.1157703,
18.8308471,98.9943392,
18.7434189,98.9625167,MK Restaurants
18.7432055,98.9629029,Foodpark
18.743048,98.962522,Sakae Sushi
18.7434493,98.9618998,ฮะจิบัง ราเมน
10.7767512,123.0127527,
1.3327038,103.7712425,Canteen 4
13.9433652,121.1566491,Benoks
13.9411949,121.162053,Chowking
13.9438656,121.1594999,Renfel Lomi
13.9437563,121.1591244,
15.0331543,120.6886929,
13.7333712,100.5640523,Bei Otto
11.5919992,122.0947181,Kusinas
11.4259802,122.0546239,Spar Restaurant
18.7879176,99.000704,Thapae Gallery
6.0105091,116.5404648,Livagu Restaurant
6.1737054,118.0605905,Pulau Selingaan Turtle Island
6.0476514,116.7032913,Rainforest Restaurant
7.1536909,100.4700411,ตอง 3
13.7388321,100.5531312,
14.2219327,120.9737824,Andok's
14.2438266,120.9756522,Moon Park
17.659139,99.2500644,ป้าแจ๋ว
14.6033757,121.0511039,Tender Bob's
14.6032467,121.0507913,Teriyaki Boy
16.6150563,120.288221,Vegas Cafe
16.6091883,120.2863099,Olives Restaurant
18.5112908,96.3901327,105 Mile
16.7107157,120.3434323,LU RiverFarm SeaFoods
16.6562219,120.3209712,Surfer's Retreat Restaurant
16.6558845,120.3202654,Urbiztondo Grill
15.4936447,120.9760204,NE Bakeshop
10.789502,106.711158,Bờ Sông restaurant
13.7530782,100.5728202,Talay Bangkok
14.5518129,120.9901272,Singing Cook And Waitresses
14.5320678,121.0209974,Max's Restaurant
14.5316472,121.0209008,Reyes Barbeque
15.0284955,120.6943982,Mandarin
14.6175625,121.0157107,Bob's Halu-halo
12.2369648,99.9891351,ครัวชมทะเล
13.3271399,99.8295434,
14.1606299,121.138804,Hap Chan
15.0400281,120.6822922,Sabel Roast
16.8530093,100.6081331,
18.7935493,99.1045513,
16.8548095,100.2178403,Gung Kheo
10.713984,122.5553667,Fortside Manok
17.3336178,99.4569858,
10.6914605,122.5722876,Mansion Garden
14.6348349,121.0938022,Jobet'sGrill Restobar
14.5493489,121.0479819,L'Opera
14.5494962,121.0483263,Jill's
14.5493173,121.0478379,Brick and Mortar
8.6478098,98.2518803,Ko' Pong Beef Noodle
1.2956087,103.8335603,La Villa
10.7728736,106.7062835,Riverside Saigon
10.7807008,106.7067111,Hai Lúa Sài Gòn
9.7022003,122.3889935,Acuaria
14.3932035,120.8641501,Morning Shine Restaurant
14.6319755,121.0828457,Bonchon Chicken
14.9269036,101.9635431,
10.6951011,122.5691748,Mr. Cow
10.6880451,122.5799991,Fort Manokan
10.6977537,122.5698387,Mama Gan
10.6971713,122.5666042,Jo's Inato
10.6979933,122.5695943,Summer House
10.695996,122.5445693,Red's
10.7068125,122.552782,Samurai
10.7197901,122.5599621,Uncle toms
14.3959114,100.1691028,
14.6250957,100.1471554,
14.8572768,100.0925462,
14.3132927,100.22579,
10.771962,106.7064377,Nhà Hàng Tàu Mỹ Cảnh
10.7817021,122.5374334,Biscocho
14.4534341,120.9756742,Chowking
14.4251266,121.0271825,Wooden Horse Steak House
14.5550874,121.0189982,Damiana's Kitchen
14.4253628,121.0397009,Bacolod Chicken Inasal
10.7805411,106.7072387,Nhà Hàng Sóng
14.518842,121.0177791,Pancake House
14.5187767,121.0178448,Savory
14.518917,121.0179973,Shakey's
14.5234477,121.000536,Mang Inasal
10.0357428,105.7897819,
10.0360741,105.7899905,
15.0254952,120.6870028,Allies Peanuts
15.0376547,120.6737822,Piknikan Restaurant
14.1941826,121.1646455,Bistro Halaan
14.6116789,121.1573231,(Pinky's) Pork Barrel Restaurant (Antipolo)
14.6097289,121.0789393,Tsoko.NUT Batirol
14.6096645,121.0811268,Pancake House
14.6097077,121.0812603,Uncle Cheffy
14.6070034,121.0791263,Pizza Hut
10.7825851,122.5374129,Biscocho
14.4757759,100.1039215,
19.5582558,103.686928,Nam Hone
19.3326705,103.3649144,
14.5559479,121.0346033,Mang Inasal
14.5587302,121.0329792,Whistlestop
10.7199704,122.5349952,Mango Tree Restaurant
14.0307723,100.5315623,
14.5618457,121.016417,Rekado Atbp.
14.631128,120.9978355,
14.5192407,121.0176933,Kenny Roger's
18.7840701,99.0162898,
18.6013384,98.9670073,
14.6204338,121.0554115,Seafood Island
14.6204531,121.0546527,Oyster Boy
14.6204109,121.056288,Hap Chan
14.6193987,121.0563523,Max's Chicken
14.5543145,100.9665728,แบ็ลคแคนยอน
14.5539512,100.9655661,
14.6655297,101.4343468,
15.1474278,98.4499769,สวนแมกไม้
15.1558112,98.4524652,
15.1408659,98.4493815,ร้านป้าหยิน ขนมจีนน้ำยาหยวกกล้วย
15.1564622,98.4520027,ร้านอาหารศรีแดง
15.1566094,98.4518817,รุ่งอรุณ
14.5558495,121.0344879,Chowking
15.3023497,98.3883394,
15.1558508,98.450119,ก๋วยเตี๋ยวเรือโกหมี
14.2382849,100.5817403,
14.4249822,121.0269225,Mendokoro Ramenba
15.16704,120.58423,Kabagis
18.7843991,98.992814,Mad Dog
14.3602529,100.5770848,Chang House
3.0433955,101.5169621,Ayam Penyet-AP
14.6230035,121.0990406,Panciteria ni Edong
14.6198354,121.1030047,David's Teahouse and Hot Pot
14.6248367,121.1021408,Planet Pizza
14.6234925,121.1020726,Bali Gulp Restaurant
1.2951297,103.8294694,Boon Tong Kee チキンライス
14.1013886,121.1561789,Masbate Eatery
14.6568918,120.9880984,Shakey's
14.8644004,101.5632176,Food stalls
1.4584857,103.8370834,Buckaroo's
14.6623789,121.0439638,Ninang's Pancit Canton
4.880951,101.964347,Kedai Makan Mana Lagi
18.7319876,99.0945474,ก๋วยเตี๋ยวเป็ดบ้านทุ่ง
10.9883178,124.6205942,La Vigia
13.2416253,99.6296583,Ostrich farm
1.3475169,103.867461,Siam Society
14.6508439,121.1069157,Paps Diner
14.6505647,121.1052804,Pizza Hut
8.172519,98.3370417,Coconut
18.7557482,99.0741881,กุ้งเผาสุพรรณบุรี
1.3302349,124.838835,Sineleyan
17.9750599,102.5448119,Mekong Breeze
10.6136261,104.1758084,តាឳ
10.56503,99.27394,Ok Mai Restaurant
9.1021725,99.3074605,Crossroads
9.1022027,99.3066599,
10.5375242,106.4058578,Nhà Hàng Khách Sạn Mỹ Đình
10.5407942,106.4037972,Nhà Hàng Cao Xanh
17.3186949,99.5521393,
18.7858763,98.9935014,Pop Coffee and Restaurant
17.3274815,99.4219297,
17.3466572,99.4398106,
17.3185259,99.5483167,
16.5572371,104.7496154,Au Rendez-Vous
17.3276159,99.5104948,
14.5586919,121.0225467,Bowler Restaurant
15.1831761,120.5226955,Zen Japanese restaurant
15.1834131,120.522051,Korean town
15.1830203,120.5222436,Korean Town
15.1807677,120.519936,Blue Bonnet Cafe
17.3197412,99.5592169,
17.3198893,99.5598893,
17.3190956,99.5461859,
17.3173306,99.551137,
14.5864839,121.181985,Kaygulay's Cafe & Grill
17.3265726,99.509034,
17.3286092,99.5214289,
14.6342294,121.038651,SteakTime
14.6342894,121.0388393,Plaza Ibarra
14.1692902,121.2549699,IRRI Cafeteria
14.6789811,121.0181422,Original Partners Pares & Mami House
14.595559,121.1257777,Princess Bakery
14.593005,120.9703747,Club Intramuros
9.7913868,125.4939445,Mario's Garden Grill and Restaurant
15.1221478,105.7994736,
13.3766389,103.8298975,
14.5590417,121.0202042,Shakey's
10.8029924,106.6995844,Gia Đình
10.8062565,106.6949559,Vegetarian Restaurant
15.0143212,120.7053531,L & E Rest.
14.2177757,121.1410643,Shakey's
17.3339641,99.4572722,
17.6319149,99.2381461,
18.2959401,99.4150983,
14.1353667,120.9561557,Buho Restaurant
4.9168764,114.9131526,New Golden Leaf
4.9170678,114.9131432,Suzliyati
17.4825854,106.6125047,
11.0076275,124.6081539,Tatta's Pizzeria
19.1367349,98.9487989,
10.4942377,123.7169866,Stranded Shipscook
14.5563673,121.0240239,Wee Nam Kee
14.5565038,121.0237656,BonChon Chicken
14.6064511,121.0785375,Fatty Joe's
19.9006308,99.0392651,
19.372132,98.9660838,
14.0631784,121.2442634,Chooks-to-Go
14.5384304,120.9810803,Classic Savory
14.9969806,120.7038049,Food Catering Services
18.7262958,99.017784,ลุงช้าง
14.0515701,121.5703456,
14.8393009,120.8352495,Citang's Eatery
12.573992,99.9004488,Hin Lek Fai Restaurant
18.7363406,99.1214396,
12.8004943,99.9858633,Dee-Lek
14.2998665,120.9569121,Sheelana's Eatery
14.0650993,99.764215,
14.0439827,99.5953745,ครัวปู่เปี้ยก
14.5936227,120.9738361,Max's Restaurant
14.2891044,100.8174351,
14.0298771,99.5287128,Dollacha
14.3747476,99.1440002,
14.0335462,99.5204667,Schluck
14.0341287,99.5197589,Magne & Tine
14.0345279,99.5189449,The Hut
14.034618,99.5191677,Tai-Thai
7.993539,98.3837139,
14.8886341,100.0889605,ครัวริน
14.5445978,98.7901297,อิ่มอร่อย
18.8173308,98.9920041,
14.5889432,120.9779929,Adams Canteen
14.5891023,120.9757915,Casa Marinero II
14.5891863,120.9758817,Casa Marinero
14.0337538,99.5138091,
14.036834,99.5170827,Retro
14.0349536,99.5183729,
1.1337241,104.2791885,Kelong Restaurant 533
14.3010863,120.9536003,Mang Inasal
10.0976984,99.829336,Saloon Restaurant
14.578776,120.9755644,UIP Restaurant
14.5786884,120.9753372,Blue Bay
18.7815739,99.0533394,เรือนแพ2
18.7881758,98.9956503,Ratana's Kitchen
14.5778047,120.981741,"Dad's, Kamayan, Saisaki"
14.5778254,120.9817879,Kashmir
18.7869406,98.9936391,Rioja II
18.7862518,98.9935495,ร้านอาหาร อรุณไร
14.5791117,120.9786259,Barrio Fiesta
14.5777593,120.9796801,Big Mama's
18.7852638,98.9984622,Le Bistrot
14.5892721,121.0695165,North Park
14.4620182,120.9913699,
14.5803646,120.981032,Tempura Japanese Grill
14.5803386,120.980973,Alex III Restaurant Grill
14.5802763,120.9800691,Rico's Inn Restaurant
14.5803854,120.9800128,Mr. Peter Lee's Hong Kong Tea House
14.5805007,120.9819496,Max's
14.581147,120.9816224,Pancit ng Taga Malabon
14.578828,120.9829086,Elvinario's Resto Bar
14.580614,120.981605,Cowboy Grill Express
14.5805244,120.981534,Shakey's
14.5807593,120.9817713,Cafe France
14.5783919,120.9811678,Arquiza Seafood and Hotpot Restaurant
14.5798224,120.9792604,May Sum Restaurant
18.2480462,102.8046123,Noodle Shop Nakhai
14.6327367,121.0441025,Rufo's Famous Tapa
19.8076325,85.8379077,
19.7058747,85.1899375,
19.6671519,85.439523,
14.5932575,120.9734688,Bacolod Chicken Inasal
14.5918481,120.9743462,Patio de Conchita
9.3761029,123.264825,Jo's Chicken Inato By the Sea
11.5696247,104.9300681,Karma
11.5696683,104.9300528,Anjali
11.5674724,104.9311347,Phnom Penh India Restaurant
11.5709964,104.9296646,Chiang Mai
11.5707063,104.9297551,New corneR
11.5719858,104.927311,Dara Reangsey
11.5746429,104.9263827,Golden Mermaid
11.5580832,104.9253815,Magnolia Vietnamese
12.7128323,104.8886606,Stung Sen
14.6329443,121.0432603,Gerrardo's
13.3543705,103.8534968,Cambodian Kitchen Restaurant
13.3539768,103.8542985,India Gate
6.4873766,99.3059561,Bung Roon Halal Food
6.4872379,99.3023771,Hawaieant
6.4868615,99.3046893,Phi Phi Bakery
6.4856316,99.3055291,Bundhaya Resort
6.4871994,99.3024701,Thai Thai
6.4867878,99.3036456,Cafe Lipe
6.485789,99.3052727,Bluetribes and zenzero
6.486582,99.3041413,Varin Beach Resort
6.4869973,99.3031326,Family Restaurant
6.487148,99.3026111,Lavoy
6.4875659,99.306463,Banana Tree
6.487984,99.3063544,Forra Rest.
6.4889978,99.307774,Ricci House
18.5756048,99.0092885,
14.5806321,120.9891104,Old Swiss Inn
7.8255444,98.2974834,Sorrento Pizza
18.5860537,99.0496857,
18.5858616,99.049797,
18.5858796,99.0518074,
18.5848675,99.0544944,
13.3581025,103.8926034,Mongkol
13.3609793,103.8649404,Menbora
13.3578927,103.8581468,Angkor Mondial
14.7061533,121.0729637,Shakeys
18.5880103,99.0468114,
18.588155,99.0463398,
18.5882187,99.0461093,
18.5883368,99.0458244,
13.0991501,103.1983031,White Rose
13.099282,103.1977937,Chhoung Heng
12.2485031,104.6702826,Sovann Phum Restaurant
12.2452986,104.6714644,Seoul 7 level spicy noodle soup
10.6071539,103.524489,Golden Star
14.2990112,120.9581609,Ethel And Ethan Canteen
14.2988163,120.9571096,Evram Andrei Store
14.2989422,120.9552352,Mang Teban Lechon Manok
18.7809651,98.994166,Sushi Ichiban
18.7824257,99.0005142,Al-Hussain
18.7824257,99.0006027,Tironui
18.7824309,99.0006908,Asma
14.2991485,120.9550932,RVL Eatery
14.2989904,120.9579948,Rose And Hans Eatery
12.6813111,101.2749995,ร้านข้าวต้ม
10.4870604,104.2891251,Kimly Seafood
4.6112099,101.1100189,Restoran Kamwan Aneka Selera
4.6119478,101.1178832,De Garden
14.6993995,121.0678637,Nitz
14.4618543,121.0088025,Thai Fusion
14.4476649,121.0291748,Hap Chan
14.4447884,121.0286578,Pancake House
14.5562009,121.0243661,Caramia Gelateria
14.5563034,121.0241924,Kanin Club
14.5562304,121.0243125,Amici
14.5563203,121.024097,Poco Deli
14.5562667,121.0242525,Omakase
14.5565408,121.0236131,Banapple
14.5564445,121.023885,Simple Lang
14.5565703,121.0235413,Pinkberry
13.519654,144.81712,Denny's
16.852036,100.2228402,อร่อยดี
13.4284149,144.6483075,Torpedoes & Tomahawks (T&T)
13.4904356,144.7810232,Chuck E. Cheese's
15.761346,121.5681578,Bahia de Baler Bar and Restaurant
15.8057083,121.1384406,Kainan Na!
12.9350283,100.8915018,แดงดำ
14.6695343,121.0436128,Kowloon House
14.6603724,121.0443377,Sangkalan
14.2962679,120.9564833,
14.2989541,120.9591508,Matsarang Korean Restaurant
14.2994853,120.9606891,Daneve Cafe Bar and Restaurant
14.6362692,121.0355464,Jack's Loft
18.9085931,99.2404572,
14.5564819,120.9797586,Sky Garden
14.5531167,120.986271,Legend Seafood Restaurant
14.6577186,121.0455637,Mangan Sutra
14.6325394,121.0350155,Kozui Green Tea
13.7097069,100.6017638,MK Restaurants
13.7125063,100.6052019,Spoons
13.7133543,100.6048591,Chor Chaba
13.7093347,100.5985847,Best Beef
7.0500243,125.5883653,Pritong Manok SM City Davao
18.8270474,98.9543473,
16.4347661,102.8557992,ทำนองลาบเป็ด
13.4029401,99.9733693,ร้านอาหารเรือนแม่ลำพู
1.2868595,103.8494116,Patro's
18.7658824,99.0827586,
7.6082824,99.0327754,Lym's Bar & Restaurant
15.0103441,120.7093866,San Matias Ihaw-ihaw
13.7588601,100.4957092,Ranee's
13.7595785,100.4975588,Suksabai
13.7600235,100.4970558,Green House
14.6575058,121.0558741,Le Ching Tea House
14.6578235,121.0559717,Mister Kabab
14.657256,121.0559192,Rufo's Famous Tapa
14.657406,121.0558806,Razon's
14.6572052,121.0559475,Ral's
14.6573255,121.0558887,Tokyo Tokyo
14.6576627,121.0559115,Kanin Club
14.6577722,121.0562859,Pizza Hut
18.78241,99.001409,Ping-Ping Seafood
13.9297261,121.6122783,Bubble's Crispy Pata & Restaurant
13.881174,100.4830644,ระเบียงน้ำ
16.4294347,102.8318006,โฆษะ สเต็ก เฮ้าส์
13.6979987,100.407907,ร้านอาหารครัวต้นสน
18.7599685,99.0786335,
18.7571341,99.0762606,
18.7489344,99.0718581,
18.7471,99.0702462,
18.7489971,99.065137,
18.7562532,99.0506462,
9.307502,123.3097302,Whynot / Le Chalet
18.814543,99.2283774,
18.8147207,99.2300833,
14.610032,121.0808122,Max's Restaurant
18.782343,98.988951,Tein Sieng
14.53744,120.9982446,King Ginno's Pares
6.9981302,100.4717448,ข้าวหมูแดงอภิชาติ
18.780733,98.988189,New Delhi
14.607916,121.0390253,The Original Savory
14.5627102,121.0195409,Heaven's Barbeque
14.5627362,121.0190096,JT's Manukan
14.5627206,121.0191222,Stoops
14.5592284,121.022018,Terry's Selection
14.5613589,121.0241683,Alexa's Deli Cafe and Wine Bar
14.5588805,121.0198691,Il Ponticello
14.5581794,121.0223568,Tsumura Sushi Bar and Restaurant
14.558768,121.0225285,La Cuisine Francaise
14.5599813,121.0240742,Pablo
14.5614227,121.0238189,Bravo! Ristorante Italiano
14.5611744,121.0210627,Malcolm's
14.5521248,121.0199436,Italianni's
12.9243673,100.9127425,La Piscine
18.0536696,100.6814853,
18.0539055,100.6789034,Floating Restaurants
17.8844014,102.7443445,
17.8975336,102.7677119,New York Bistro
17.882484,102.7396316,Rudi's Bakery
14.5222366,101.3690848,Khao Yai Steak House
14.5790202,101.4000697,Steak In Khao Yai
9.3084474,123.3095277,Casblanca Restaurant
9.3077859,123.309686,Mamia's Bar and Restaurant
13.6983871,100.4098677,
13.6982254,100.4085614,
13.6978608,100.4084354,
13.6956663,100.4079002,
16.8070474,96.14457,Pastamania
6.9995651,100.4709198,Boat Bakery
14.8824701,100.3322399,Jit Restaurant
18.1957802,120.5941725,Max Restaurant
7.0002404,100.4749134,ข้าวต้มซอย 3
14.6307138,120.9954525,Jonas
18.7586456,99.1120537,สวนอาหาร บัว
18.7609737,99.0786167,รสทิพย์
7.0009458,100.4715371,ราดหน้ายอดผัก
1.2814303,103.8231561,Tiong Bahru Food Centre
14.6005124,120.984235,Globe Lumpia
15.051626,120.7035969,Cucina
1.3658708,103.7502344,Saizeriya
1.3353326,103.8448031,Foods Treasure
7.0767481,125.6063143,Trellis N' Vines
7.0776053,125.6055388,La Bodeguita
7.0811559,125.6025201,Sugarmunch
11.1037198,122.6423938,MVP
18.7979914,98.9655807,Bake & Bite Bakery and Restaurant
14.8582521,100.0651053,
1.3402702,103.7042445,Sakae Sushi
14.0398836,99.5105324,Sunrise
14.1937069,121.1654904,Lutong Pilipino ni Aling Ely
14.9988131,103.1171984,Irish Bar
14.2726312,121.4552306,Andok's
14.2699356,121.4445663,Hana Japanese Restaurant
14.5984445,121.038381,Kanzhū Hand-pulled Noodle House
7.0980895,125.6147784,Gabon
7.111463,125.6135396,Cafe Andressa
7.0025373,100.4838078,Futai Steak House
18.7628636,99.0375754,ครัวปูยิ้ม
7.0133346,100.4852392,อาม่าติ่มซำ
7.0130541,100.4852031,OOI (โอโออิ)
7.0184563,100.4830806,ส้มตำลุงรวย
18.7901044,98.9917131,Eden Restaurant
14.5577881,121.0229829,Reyes Barbeque
14.5587127,121.0240204,Max's
14.5579085,121.0238769,Dell's Foodhall
14.557866,121.0229454,Pho Hoa
14.5576466,121.0230663,Bacolod Chicken Inasal
14.5582714,121.024267,Galleon Food Gallery
14.5584839,121.0239425,Good Mixes
18.7548641,99.0797239,
18.7411883,99.1602027,ร้องวัวแดง
7.0194013,100.4950086,ร้านคูเต่า
13.108562,99.9476525,Rabieng Restaurant and Guesthouse
14.6183284,121.010267,Ersao
10.767375,106.6941425,Crazy Buffalo 유명술집
10.7680337,106.6938158,FIXME Pizza
18.7837737,98.9915253,Thapae Chill Garden
14.6423535,121.0397874,Phở Hòa
14.6425221,121.0391819,Shakey's
14.5652249,121.0311867,Sansung Korean Restaurant
11.111559,122.6488567,Tres Hijos
14.6497768,121.0498684,Tropical Hut
14.6495432,121.0497075,Max's
14.6495484,121.049906,Serye
14.6496782,121.0499918,Bacolod Chicken Inasal
3.0975832,101.6128861,Sam yu
7.1788127,100.6135491,ร้านอาหารมุสลิม
18.7713749,99.0615652,
14.5648169,121.0294081,Dona Dona Korean Barbeque
17.9655843,102.6106587,Sathaphone
14.5567864,121.0076251,Mang Inasal
9.3006829,123.2971643,Edelweiss Austrian Restaurant
9.3010526,123.2974766,Fuh Garen Chinese Restaurant
14.558974,121.0251115,Top of the Citi
14.5598838,121.025777,Cravings Restaurant
15.1309416,98.5061644,
14.5599425,121.0258234,Project Pie
14.5634107,121.0286172,Shinjuku Ramen House
14.5637402,121.028776,Angel's Pizza Pasta
14.6420721,121.0266434,Mang Inasal
14.6062654,121.0183912,Mann Hann
18.5875686,99.0481374,
9.480944,100.066424,The Cliff
18.7906428,98.9912316,Chiang Mai Saloon
14.634331,121.0266668,Rustica
18.7469458,99.2560538,
7.7398028,98.7733375,Calamaro Resto
9.472042,100.062415,Beach Republic Restaurant
14.6287432,121.0329147,Ineng's Special BBQ
14.6297924,121.029554,The Chocolate Kiss
11.939761,108.4420618,Nhà hàng Thủy Tạ
14.5652743,121.0296418,WG Diner
14.563499,121.0286602,Classic Savory
14.6358278,121.0303587,Causeway Timog
14.6352108,121.0330034,Yam Cha
14.6351116,121.0331428,Danny's Grill
14.6366168,121.0284114,Savory
14.6367621,121.0275102,Le Ching
11.9443699,108.4563767,Phù Đổng
11.945207,108.4340991,Hoa Sen
11.9342876,108.4310727,Khu Biệt Thự Nguyễn Viết Xuân
11.937287,108.4478858,Ming
11.9439721,108.4339101,Cẩm Đô
11.9360057,108.4347684,Hương Ca
11.9374351,108.4438216,Hàng Không
11.9385561,108.4301782,Moulin Rouge
11.942354,108.438184,Hương Trà (beer garden cafe)
11.9282663,108.4468202,Ocean Palace
11.9489665,108.4596964,Long Nga
11.9463265,108.4595426,Hoàng Anh Đà Lạt
11.9463624,108.4346856,Hoàng Lan
11.9417876,108.4392911,Thanh Thuỷ
11.9399394,108.4487061,Osaka
11.9438156,108.4554714,Đường Sắt
11.7759407,99.6907183,
12.6823171,99.8886697,Food
9.49942,100.059386,Dr Frogs
14.7148938,100.4363012,
7.0687154,125.6061273,Grub Resto Cafe
7.0718582,125.6059948,Crepelato Gelato
7.076013,125.6069471,Wings & Dips Cafeteria
17.0414632,121.100329,Lolo Peds Restaurant
18.7909208,98.9904576,Zoe in Yellow Garden
13.7041825,100.4216479,
14.6506162,121.0286721,Ramen Cool
14.6504579,121.0286292,Pansiteria Lido
11.0059106,124.6065609,Sammy's Food Lane & Beer Station
13.6655591,100.4356688,น้องเนย ซีฟู๊ต
13.768767,100.571906,ฮะจิบัง ราเมน
14.6215722,121.0954919,Cafe Lidia
11.4098591,107.6394161,Tiệm Cơm 84
12.0304906,92.9941576,
12.03053,92.9946404,
11.9869758,92.9540663,
11.9867869,92.9540395,
11.5717845,104.9289106,Lemongrass
16.3395115,102.8012629,ไก่ย่างครูสิทธิ์
16.5413738,120.325683,Babalu's Bulalo
17.5592503,120.3648969,Hidden Garden
17.5734931,120.3892868,Cafe Leona
17.5733364,120.3891197,Max's
15.4514918,120.9621249,Club House
10.2527544,103.9424096,Bien Duong Bungalows
18.8015465,99.0169061,
18.8015727,99.0177112,
18.8013463,99.017766,
14.5410075,121.0558191,Shakey's
14.5491373,121.0562076,Max's Restaurant
9.4663794,99.933098,I-Talay Nasai Garden & Restaurant
11.1057299,122.6462852,Cheng Eatery
9.9643096,98.6340682,Muslim Restaurant
18.7672365,99.0046751,
18.7683748,99.0057286,
17.9180636,101.6914081,
18.0187738,101.7532303,
14.5558719,120.9787977,Gloria Maris Shark's Fin Restaurant
6.6135973,100.0649993,On's The Living Room
18.762624,99.0244404,เพลินพริ้ว เฮ้าส์
14.4481642,120.9842599,Panciteria Lido
18.7570304,99.0951112,3ดี
14.5630044,121.0283879,Hossein's Persian Kebab
14.560925,121.0273173,Chowking
14.6422163,121.0324974,Bellore
14.6339429,121.0467053,Pampanga's Kitchenette
13.4082024,99.99766,
13.4075618,99.9981979,
18.7700223,99.0431972,ก๋วยเตี๋ยวศรีบัวเงิน
1.0606349,124.8196661,Villa Brave Ratahan
18.7721465,99.0415506,
14.562837,121.0282982,Ferino's Bibingka
14.5703835,121.0462045,Amber's
14.6341329,121.0233955,Panay Food Strip
6.0204501,101.9654332,Jo Jo Bakery and Restaurant
13.6733949,100.4414372,
13.6684535,100.4431001,
13.6670255,100.4462973,สวนอาหารแก้วกาญจน์
16.4691737,107.5958505,Club Garden
16.4689896,107.5949345,La Carambole
6.0231671,101.9559856,Bangya Buffet
14.5663587,121.0097615,Bacolod Chicken Inasal
17.8016855,98.949247,ศูนย์อหาร
16.4689881,107.5947886,Why not?
13.7561123,100.5020888,เมธาวลัยศรแดง
14.6083626,121.0384909,Ferino's Bibingka
14.6084155,121.0384116,JT's Chicken Inasal
13.7905489,100.3238507,ก๋วยเตี๋ยวแม่
14.624194,121.0328523,World Class Persian Kebab
16.4989071,102.8365672,ก๋วยเตี๋ยวเรือเจ๊กุ้ง
9.1922891,123.2715092,Eldorado Beach Resort Restaurant
6.9509364,126.2179788,La-ne's
7.4419068,125.8050813,Balinsasayaw Grill
18.7719606,99.0410553,
14.5639443,121.0287662,Al Batra Restaurant
14.5625411,121.0287327,Yoohoo
14.830227,120.2812997,Sam's Pizza
9.3636911,122.8055404,Chicken Ati-atihan
9.0501623,123.1199158,Kookoo's Nest Restaurant
2.1954104,102.2488528,Eha Juice & Veggie Bistro
6.9285965,125.3435375,Quadro Queens Fast Food
6.738842,125.3655883,Sofia Eatery
7.044353,125.5911054,Ivy Jane Dampa Restaurant
14.5793525,121.0517942,Jepoy's Grill
14.5715334,121.0531763,Tiny Teapot
14.5758117,121.0591433,Corrie's Pancit Malabon
14.572761,121.0606343,Cafe Juanita
14.5729715,121.0601834,Uncle Moe's Shawarma
13.7207788,100.5472935,Lido
13.7209353,100.5474318,Trajai Steak House
14.566387,121.0090549,Suzu Kin
14.5642744,121.0151898,TJ Grille
14.4349196,101.4146649,
12.2355251,109.1949937,Good Morning Vietnam
12.9298205,102.4960087,Beer Garden
14.5295367,120.9891079,Fatless Shabu-Shabu
14.5298169,120.9889717,Yasubei
9.1441197,99.3251835,Baansatek
9.1437,99.32325,Sweet Kitchen
10.7684684,106.6938884,Vietnamese Aroma
17.875061,102.6521032,
13.840355,100.598128,ศิริวรรณ หอยทอด-ผัดไทย
17.8745216,102.6519983,ຮ້ານເຝີ
17.8760057,102.6517009,ຮ້າເຝີນາງມຸນທາ ສາລາຄໍາໃຕ້
17.8750663,102.6520978,ຮ້ານອາຫານຄໍາພະຈັນ
10.606166,104.1797527,Rikitikitavi
10.0665246,99.8351602,Eagle View
18.7799358,102.5093268,ຄຳເຮືອງ
14.3010432,120.9565773,Max's Restaurant
18.2480701,109.5045304,Armando
18.2517636,109.5002335,BBQ Amazon
16.4353761,102.8362977,ครัวเวียดนาม สาขา 2
16.4355458,102.8363242,เอมโอช
16.4349558,102.8359085,เล้งเย็นตาโฟ
16.4366837,102.8357601,บะหมี่กวงตัง
16.435663,102.8342507,เจียงลูกชิ้นปลา
14.4257512,120.9439588,Yang Chow
18.2538881,109.509026,1+1时尚东北菜
14.587213,121.0647926,Steak Plus
14.587215,121.0647109,Brazil Brazil
14.5876815,121.0643315,Marina Seafoods
14.5869397,121.0642354,Dencio's
14.5871006,121.0642354,Carlo's Pizza
14.5870227,121.0642407,Behrouz
9.5598403,100.0313688,The Pier
9.4212305,100.0101544,The Z Restaurant
9.52896,100.0599576,Noori India
9.5663686,100.0183656,Zazen
18.9224971,102.3963825,Sae Lao Restaurant
7.3010495,125.6839221,Cara's Food Haven
7.6021171,125.9628756,Mang Inasal
11.2397605,125.0048098,Dahil Sa Iyo Fastfood
11.2450336,125.0020661,Shakey's
11.2416862,125.0007811,Giuseppe's Restaurant
14.6383948,121.0308889,Tok-Yu
15.1222967,104.3331282,Franks Living In The Past Restaurant
7.0665133,125.6086022,Clare Restaurant
9.3081885,123.3096087,Chin Loong
12.7433163,100.8418947,Sea Food
12.752857,100.85045,
17.4026333,102.8040167,Zap Buffet Steak
16.4322815,102.806244,เฉลียงชลลดา
15.1311507,120.5723412,DC Market Grill
17.6103804,100.0857112,New York Steakhouse
13.8143997,100.041874,ศูนย์อาหารหน้ามหาวิทยาลัยศิลปากร
13.8138944,100.0395082,สุกี้บุฟเฟ่ต์
9.320876,123.3123692,La-bas
9.3095349,123.3089543,Café Antonio
9.9139012,118.8771878,
19.2347783,98.7837744,
7.0840056,125.6123231,Mama Maria Pizzaria
14.6328639,121.0352045,Mesa
9.7396826,118.7466892,Ugong Rock Grill & Seafood Bar
9.7399499,118.7418096,Shakey's Pizza
9.739785,118.750131,Thanh-Tam Vietnamese Orig Dish
9.7398527,118.7363995,Bruno's Swissfood Wines/Delicatessen Restaurant
13.0493072,99.9365159,
9.8074915,118.7346807,Baker's Kitchen
7.0827995,125.6116816,Boyaks
14.5640597,121.029945,Token Ginseng Chicken
14.5639688,121.0300871,Mulle Banga
14.5722709,120.9830008,Mamita's Deli
18.8382015,99.150694,บ้านสวนคุณตานิวาต
15.1628658,120.5917863,Angeles Fried Chicken House
15.1607616,120.5918799,Didi's Pizza
11.8112219,102.4749879,Swiss Sawasdee
11.8087297,102.4813125,
11.809955,102.4809418,
11.8124183,102.4792598,Peaw Restaurant
9.7780738,118.7478521,Ka Inato
9.7393772,118.7405471,Giacomino's
9.757461,118.7475939,DJ Ann Rich Foodcourt (eatery)
9.7774849,118.7478412,Pho' Saigon
18.8171353,99.1624685,
14.3967553,120.9721441,Joe Kuan
15.5573633,121.2249145,
14.0634296,121.3269888,Kumpadres
16.4729559,102.8259579,
14.562401,121.0300199,
14.5634106,121.033004,Som's
6.488511,99.308215,Pancake 2
6.4880234,99.3056248,La Luna Italian Restaurant
7.7410741,98.7738105,Garlic 1992 Restaurant
4.382598,102.3992377,LBK
7.4461531,125.8069617,The Palm City Food Park
7.4461287,125.8052735,Chicken Ati-Atihan
7.0962797,125.6643469,Blue Waters Function Hall
7.0799571,125.6087567,Aler's The Home Kitchen
7.0687764,125.6151876,Turquoise Kebab Restaurant
7.0891606,125.5055913,Penong's
7.0226745,125.5003119,Honey Bear
14.6393799,121.0488971,Little Quiapo
7.0757986,125.6246768,Blue Carabao Diner
3.2115928,101.5616297,Restoran Nasi Kandar Maju Ahmad
3.2106474,101.5602664,Restoran Thaqwa Corner
3.2091744,101.562386,Restoran Rasa LeLagi
7.0679698,125.6060704,Calda Pizza
7.1328418,125.3830783,Prayer Mountain Restaurant
7.0228524,125.5005593,Tia Nina Pizza & Pasta
7.0836736,125.6177441,Taalianas
7.1081209,125.6517294,Garden By The Sea
7.1145179,125.6527699,Mandarin Tea Garden
7.4770935,125.2695364,
18.1564113,120.5225696,Golden Pavilion Chinese Restaurant & Night Club
6.486821,99.305254,Rak Lay Thai Food
11.6953595,122.3742417,Saylo Restaurant
8.060921,98.917241,Tamarind
18.156399,120.5321586,CDM Marios Bar & Restaurant
7.0968906,125.6070406,Ladislawa Country Club
7.0175583,125.4976121,Dimple's
7.0518681,125.5902202,Ram's Chicken & Grill
7.1044233,125.606087,Green Heights Clubhouse
7.0613616,125.5904766,Loring's Restaurant
18.0551245,120.5650634,Batac Food Plaza
7.1231037,125.4802348,Suribas Ihaw - Ihaw
7.0239119,125.455826,Ridge View & Cafe
7.0495364,125.5833089,Karlyn's Food Station
7.0931904,125.568692,Dencio's Sa Hilltop
7.0681269,125.6092335,Chickies & Patties
7.0664325,125.5822659,Taklobo Restaurant
7.1348637,125.475433,Sugbahan Sa Payag
7.0881086,125.611258,Coco's South Bistro
7.0881337,125.6124006,Sen Ton Whan
7.0884004,125.6132268,Grand Emperor Seafood & Restaurant
7.0881417,125.6134327,Ahfat 3 Seafood Plaza
7.0874732,125.6132811,Emerald Seafood Garden
7.0884666,125.6127826,Ahfat 1 Seafood Plaza
7.051509,125.588945,KC Fishing Restaurant
7.0527511,125.5934019,Khash Persian Kebab & Resto Bar
18.1968115,120.5946274,Macy's Diner
7.0780283,125.6150187,Kuya Eds
7.0817218,125.6130701,Boyd's Pizza House
7.081089,125.6097087,Tiny Kitchen
7.0714326,125.6068283,Pards Seafood Grill & Restaurant
7.0685205,125.6046066,Golden Peter Pan Bakeshop
7.0571582,125.5721307,Billy the Kid
15.0295075,120.6760356,Cool Change
7.0990596,125.6258318,
18.2039509,120.5989455,Tatalaok Roasters
18.2042648,120.5991589,Chooks To Go
18.1995931,120.5961066,Asian Garden Grill & Restaurant
7.0693992,125.6132806,Glamour Crab Buffet
7.0764739,125.6194943,Tong - Yang Smokeless Grill & Shabu Shabu
7.1059543,125.6139399,Uptown Restaurant
7.0809646,125.6129692,Space Burger
14.4758736,121.0007689,Amber
14.4535485,120.9755009,Sinangag Express
16.4315427,102.8284712,5 ดาว ราชาโต๊ะจีน
15.0295185,120.6753719,
7.0880576,125.6111853,Seoul Ga Korean Restaurant
7.0725828,125.6070062,Italian Job Pizzeria
7.072481,125.6070136,Glamour Resto & Caterer
7.0725303,125.6070089,Crab Buffet
7.0806768,125.610711,K1 Chinese Cuisine
7.0808098,125.610935,Bak Bak Native Chicken Restaurant
7.0758035,125.6088935,Sentro Verde
7.0667223,125.6073052,Tai-Pan Palace
7.0767137,125.6095808,Rego's Pasta Express
7.0647382,125.6067569,Kuya Eds
7.1033771,125.6335062,Spirale
7.1025041,125.6335316,Dimsum Diner
7.1011253,125.6313952,Penong's
7.0678245,125.6160312,Lyndon's Worlds Worst Ribs & Awful Chicken
14.5587964,121.0230933,The Old Spaghetti House
16.4306751,102.8303888,ข้าวต้ม ก๊ก 24 น.
7.0795337,125.6083223,Leandro's Specialties & Catering
7.0795061,125.6082812,Happy Home Cafe & Diner
7.0828372,125.6116326,JB's Hut Seafood & Grill
7.0697246,125.6073802,Toryano's Native Chicken House
18.7747961,98.9993781,Da Antonio
14.9379176,120.5998609,Kokai
18.5375598,120.7659839,North Wind Restaurant & Videoke Bar
18.5361748,120.7643087,Miguel Luis (Pansiteria)
18.530756,120.7942458,2N1 Place (eatery)
7.1353249,125.6901532,Azneb Grill & Restaurant
18.575241,120.8031494,BergBlick Restaurant
18.5693013,120.7935572,Sarabo
14.2140037,121.1667915,Aling Inday Lugawan sa Banga
14.9751084,120.527492,Mins Kitchenette
16.4368042,102.8361268,ข้าวต้มเต็กเฮง
16.4370656,102.836467,ข้าวต้มแป๊ะตี๋
16.436826,102.8364435,นิวเอมโอช
7.0491153,125.5908078,Bistro Rosario
7.0669243,125.606166,Sunya Restaurant
7.0668526,125.6062716,Kusina Davao
7.0711181,125.6078164,Barbeque Boss
7.0709882,125.6074163,Pidoks Camus
17.5726996,120.3891864,Lampong's Restaurant
17.5721154,120.3895531,Bistro Amarillo
17.5717433,120.3876519,Dos Meal Restaurant
7.0856657,125.6131243,Palovince Place
7.0673413,125.6115073,Sarimakan Crab Buffet & restaurant
1.3092348,103.7767137,Staff Centre
17.589273,120.3892595,Shakey's
7.0610184,125.5570475,Kookel's
17.5687718,120.3857307,Karissa Josy Restaurant
7.0765293,125.606097,Conching's Native Chicken
7.0806477,125.6146198,Ngoyong's Haus
7.0769009,125.6059189,Mang Del's Kambingan
7.0699903,125.6074427,D' Counter Executive Dormitory & Fastfood
7.0704549,125.605216,Dimsum Diner
7.0736375,125.6144176,Davao Shanghai Restaurant
7.0738147,125.6144007,Chickies & Patties
7.0769423,125.6062003,Mae's Kitchen
7.1102548,125.6475826,Jackie's Resto Cafe
7.1134762,125.6515303,Marina Tuna
16.4141905,102.8157434,เที่ยวละไม
7.1903026,125.4556409,Cabawan sa Calinan
7.1612537,125.4746251,Daddy Lodge & Grill
7.1842768,125.4610115,Traveler's Grill
7.0778712,125.6151409,Chickies & Patties
14.6657612,120.9487312,Mary Jay Restaurant
14.6578624,120.9514617,Chowking
7.9558468,125.1090174,Roadhouse Cafe
8.156104,125.1273975,Reyes Grill
8.1555682,125.1274782,ARL Resto & Jazz Bar
10.6993485,122.5604562,Barrio Inasal
7.0530278,125.5948822,BC Chicken House
7.0969569,125.6185919,Space Burger
7.0990302,125.6244411,Mang Inasal
7.0855935,125.6122608,Mandarin Tea Garden
7.0882941,125.6133053,Davao Korea Town Restaurant
7.058529,125.5660906,Villa Josefina Clubhouse
7.0609815,125.5568594,Le'Kooks
7.1096196,125.6525478,Dagat Fiesta Resort
7.0921619,125.6220495,Vamos Amigos Grilles
7.1048022,125.6141388,Alop's Ihaw - Ihaw
7.0991721,125.6149412,Penong's Barbecue
7.0702292,125.6140189,Tita Annie's
7.0729066,125.612432,Sym's Gourmet
14.6707558,121.0391471,Max's Restaurant
14.6706132,121.0386212,Savory
7.1173078,125.4794398,Kubyerto's
7.0477195,125.5949724,Ram's Lechon Manok & Restaurant
7.044468,125.5913468,Lisa's Seafood Grill
7.0445182,125.5916389,Bogsers Restaurant
7.0685659,125.6084655,Zed Pizza
7.0993698,125.6267456,Mang Sario
7.0563646,125.5999824,Dusk Til Dawn
14.64905,121.0283032,Azadi Persian Kebab
14.6488786,121.0282721,Pancit Malabon
14.6489328,121.0282845,Ersao
7.0795722,125.602273,Leandro's Specialties
14.646626,121.02776,Mang Bok's Manok
10.6983782,122.5675455,Shakey's
10.6944686,122.56504,Pizza Hut
7.070114,125.6143646,Chippens
7.1931889,125.452865,Fattmatts Ihaw-Ihaw
6.7704036,125.377637,Mers Native Delicacies
16.1635059,103.345708,
7.0704639,125.6076019,Tsuro Japanese Restaurant & Sushi
7.0784149,125.6134203,Calda Pizza
7.0722823,125.607441,Saluhan Lounge N Buffet
7.0671311,125.6073109,Dusk Til Dawn
7.0667595,125.6085508,Claude's Le cafe de Ville
14.4259549,121.0276616,Nathaniel's
14.4212583,121.0360757,Teriyaki Boy
14.4213622,121.0361615,Pancake House
14.4217467,121.0365531,North Park
14.6765813,120.5350882,Master Chef
7.042336,125.5833962,Zugba Grill & Resto Bar
7.0624456,125.5964363,Itaewon Korean Restaurant
7.1425924,125.6534032,Mang Godo Kambingan
14.4266741,121.0408449,Nostalgia Restaurant
14.4263296,121.0407938,BBB Burger
13.9410633,121.6018581,Okazu Garden Resort & Restaurant
7.2739384,125.669377,Tita's Bulalo Station
7.3109351,125.6847029,Lambat Grill & Restaurant
7.3030005,125.6799279,Empoy's Grill
7.2937926,125.6775214,Pad's Kamayan
7.2976569,125.6790796,Mandarin Tea Garden
7.0249452,125.0786338,JC Complex
15.0423259,120.6841539,Yellow Cab Pizza
7.0704438,125.5171548,South Pacific Community Clubhouse
7.0675137,125.6113463,Pritong Manok
7.4464762,125.8094334,Dencio's
7.4601639,125.8194015,Banambo Grill
16.3991182,120.6133117,Strawberries & Ice Cream
16.399128,120.6133376,KA Japanese Food
16.399138,120.6133642,Shakey's
16.3991742,120.6134605,Wrap N Roll
16.3991546,120.6134084,Hot Shots
4.0023249,101.0087734,River View Restaurant
16.4085332,120.6105489,Korean Palace
16.4035711,120.6147855,Cantinetta
7.0635616,125.5889756,Gardena Fresca Garden Pond & Grill
7.0869046,125.5740147,Las Terrazas Clubhouse
14.5454787,121.0454357,Malcolm's Deli
14.5489294,121.0457547,Toro
16.4340052,102.8314804,รุมตอม
7.0599191,125.537144,Dis Way ang Lutong Noypi
7.0478151,125.5911133,Delongtes
7.0960264,125.6642671,
16.360727,120.6207508,Lorenzo Hall
13.9385185,121.5995983,JM Tsuki Japanese Restaurant
14.637692,121.0262173,Pizza Hut
14.641393,121.0265551,Slice & Dice Steakhouse
17.6157771,121.7299312,Adrinel's Restaurant
14.9010518,120.5466646,
7.0229016,125.5006383,Mang Inasal
14.4501211,120.9238925,Andok's Manok
14.8817665,120.5168867,Genesis
14.2340065,121.3636894,
14.4622048,120.9628524,Chowking / Red Ribbon
7.8864215,98.3023631,Kanchana Food Court
14.4323305,121.0141373,Cowboy Grill
14.4215882,121.0342917,Bugsy's Bar & Bistro
7.0878234,125.571936,Dencio's Kamayan
14.6709507,121.0384376,Causeway
14.3651141,121.4835452,Fema's
14.3650173,121.4835462,Albino's Goto
14.5308787,120.9936791,Mang Inasal
14.5323211,120.9937561,Chowking
7.4487123,125.8106348,Annette's Laechon Hus
7.4460935,125.8055648,Penong's
7.4460936,125.8054491,Papa Pins
7.4461152,125.8051388,Rancho Grill
7.4400197,125.8034004,Arman's Eatery
13.9428655,121.6138415,Luisa and Daughter Restaurant and Catering Services
14.4846409,120.9944491,Sugar Bites
14.549926,121.055404,Hap Chan
14.6097683,121.0803033,Denny's
18.7456622,99.1183584,
7.0061091,125.7270756,Restaurant
14.5730179,120.9861196,Domo
8.666703,98.2530142,Khao Niau Restaurant
14.2731303,121.4541182,Emin and Mila's Canteen
11.9738883,121.9165723,Palms of Boracay
18.8073666,99.1174069,
14.4563508,120.9944446,Let's Chow!
14.4748377,121.0006431,Suzhou Dimsum
14.5741248,121.0480419,Tapa King
14.6016187,121.0511827,Italianni's
14.6026328,121.0509194,Pasto
14.6010466,121.049526,Sbarro
14.6011199,121.0492896,Brothers Burger
14.6078948,121.0777412,Seoul Barbecue
14.6071669,121.078359,Savannah Moon
16.4651225,102.8324604,เป็ดย่างแปะธง
14.6034543,121.0512942,California Pizza Kitchen
14.6032786,121.0508687,Banana Leaf
14.6034313,121.05038,Papa John's
14.6004675,121.0502334,Omakase
14.6033433,121.0510255,Cibo
14.6026772,121.0508651,Classic Savory
14.603484,121.0513661,Arya
14.6029402,121.0506292,Kyochon
14.5472115,121.0349519,Säntis Delicatessen
14.5472639,121.0349264,Le Coeur de France
14.5378495,121.0001056,Padi's Point
14.5832605,121.0778629,Comida China de Manila
14.5833909,121.077793,Mom & Tina's
14.2733045,121.4489222,Pico's Restaurant
14.4260408,121.0274116,Zubuchon
14.4476711,121.0099225,Mama Lou's
13.5159144,144.8055047,Nana's Cafe
13.5013513,144.7894651,Proa
14.9832703,120.6207045,The Platters Restaurant
14.5810288,121.0761653,Lydia's Lechon
14.9857368,120.6217879,
7.080914,125.6144786,Gabbies Garden Restaurant
7.0781325,125.6149673,Beary Chicken
7.077483,125.6152999,Olli's Resto
7.0765886,125.6146079,Fahrenheit Resto Bar
7.0769426,125.6183785,For the Good Times
7.0748665,125.6176329,Naty's Delicious Lechon
7.0711005,125.6147753,3M's Kainan
7.0708179,125.6170487,D'Breakfast Club
7.0763227,125.6106905,Tadakawa
7.076357,125.6107396,Tadakawa
7.0764396,125.6106328,Pixies
10.7917311,106.6915979,Bánh canh Hoàng Ty
9.6581403,105.1136413,Hương Tràm
10.3148379,105.4833139,Quán cơm 5 Luyến
13.5133198,144.8063832,Planet Hllowood
14.5292984,120.9938777,Lydia's Lechon
6.2916472,99.7268877,Man's Cafe
6.2812607,99.7321031,Sun Cafe
6.3097058,99.725089,Sajian Aki's
6.4044643,99.8207942,
10.8184173,106.7047992,Quán ăn 7777
14.4572515,121.0351567,Shakey's
14.5708658,121.0654136,Jade Palace
14.6089153,121.0809909,Nanbantei Yakitori Bar
14.6094616,121.0808605,Grafitti
14.6107543,121.0793351,House of Wagyu Stone Grill
10.335783,107.0716518,Belly
10.3474676,107.0849796,Cơm Hướng Dương
13.809583,100.616898,Oregano Italian Restaurant
16.4333543,102.8407571,ครัวนายตุ๋ย
16.4325704,102.841138,Coconut Restaurant
14.4661335,121.0161534,Lido
14.452996,121.0301582,Sinangag Express
14.4452988,121.0290258,Army Navy
14.4501832,121.0300441,Brooklyn Pizza
14.4452438,121.0277068,Cafe France
14.446999,121.0202798,Hanakazu
14.4451269,121.0257443,Little Quiapo
14.6382619,121.0011089,Le Ching Tea House
14.6381684,121.0008032,Causeway Seafood Restaurant
3.20135,101.6197538,Restoran Al-Azur
3.2026503,101.617991,Restoran Ah Niu
14.2740244,121.4560811,Durafe
14.6025638,121.0790085,Causeway Restaurant
14.6090524,121.0774519,Coral Garden
14.5845636,121.0676078,Uncle Moe's Shawarma Hub
14.5845649,121.0675531,Frankie's New York Buffalo Wings
14.5783162,121.0330775,Tapa King
14.5762691,121.0348623,RJ Bulalohan
14.4536646,120.9756271,Padi's Point
15.119392,104.9063987,โรงอาหารกลาง
6.3705923,99.6723462,Oriental Cafe
16.409527,120.6004896,Hill station
14.2669074,121.4249803,Travellers Resto
14.2833502,121.4140393,Columbia Restaurant
7.0063369,125.4648274,Villa De Mercedes Clubhouse
14.5879924,120.3937654,Montemar
7.0622512,125.5955069,Little Kate's Kitchen
5.4184854,100.3354024,Sri Malaya
5.4162301,100.3386502,Kapitan
15.0567621,120.6594039,Ramos Eatery
15.1246546,120.5979176,Hungry Neighbors
1.4184857,103.7164134,Poison Ivy Bistro
15.0415901,120.6766591,Bale Kapangpangan Restaurant
14.721875,120.2567072,
14.5526936,121.0242746,Mann Hann
14.5506341,121.0266008,Outback Steakhouse
14.5521412,121.0248224,Max's Restaurant
14.5521333,121.0248878,Ä Veneto
14.5527415,121.0241753,Buddy's
14.5521278,121.0249472,New Bombay
14.5527883,121.0240784,Tapa King
14.5507225,121.0265161,Modern China
14.6529715,121.0181303,Food Station
14.3857754,120.9774178,Shakey's
14.0399896,120.6518349,Sr. Pedro
14.8424792,120.2871483,Canteen
14.6273428,120.9926997,Pares Mami House
14.6358366,121.0376802,Karamba and Grill
14.6385016,121.036572,Gully's Island Bar and Restaurant
14.8413389,120.2871931,Wimpy's
14.583563,121.1236459,Meidolls Cafe
14.830465,120.2790498,
18.7879614,99.0399616,ก๋วยเต๋ียวไก่ตุ๋นนัองนิสา
17.9538068,102.6172363,Lobo
12.1023713,102.2742699,Pink Restaurant
14.5587967,121.0058404,Yellow Cab
14.5588642,121.0059853,Teriyaki Boy
14.5588434,121.005937,Luk Yuen
14.5588953,121.0060282,Pancake House
14.5589784,121.0062159,Savory
14.5597778,121.0201838,Friss Point
14.5610994,121.0254199,New Bombay
5.5514752,95.3301933,Food Center
12.1034032,102.2738743,Nong Bua Seafood
7.0905876,125.6104581,Mang Inasal
7.0904831,125.6105144,Dimsum Diner
7.0920169,125.6122105,Italianni's Restaurant
7.0918745,125.612346,TGI Friday's
14.5727244,120.9851271,Hap Chan
14.6365598,121.0258086,Cowboy Grill
14.6415043,121.0265837,Red Rich
7.1122521,125.632191,
14.620654,121.0200635,Panciteria Lido
7.0983345,125.6189542,Chowking
7.0802243,125.6122434,
7.0814603,125.6131156,
7.8256012,98.2964644,Da Mario
18.7913042,99.0270552,บี่เฮียงโภชนา
14.7495146,120.9655158,Greenjoy
17.4066636,103.2363247,
15.2143666,145.7205898,Kinpachi Restaurant
15.2087164,145.7175592,Hard Rock Cafe
15.2128038,145.7182158,Country House Restaurant
